id,version,station_name,gu,dong,latitude,longitude,use
1,타슈2,타슈관제센터,유성구,문지동,36.389501,127.409377,Y
2,타슈2,시즌2 임시대여소,서구,둔산동,36.387221,127.351720,N
3,타슈2,탄방동 한사랑병원,서구,탄방동,36.348446,127.390052,Y
4,타슈2,한가람아파트 2동,서구,탄방동,36.348201,127.390409,Y
5,타슈2,목련아파트 103동,서구,탄방동,36.350037,127.390402,Y
6,타슈2,크로바아파트 103동,서구,둔산동,36.352480,127.390385,Y
7,타슈2,한마루아파트 107동,서구,탄방동,36.354587,127.390468,Y
8,타슈2,농협 둔산중앙지점,서구,둔산동,36.358551,127.390102,Y
9,타슈2,홈플러스 대전둔산지점,서구,둔산동,36.356220,127.390220,N
10,타슈2,둔산동 샤크존,서구,둔산동,36.348853,127.386433,Y
11,타슈2,공무원연금공단 대전지부,서구,탄방동,36.347026,127.386925,Y
12,타슈2,시청역 8번출구,서구,둔산동,36.350583,127.386942,Y
13,타슈2,세이브존,서구,둔산동,36.351954,127.395413,Y
14,타슈2,가람아파트 상가,서구,둔산동,36.355878,127.398305,Y
15,타슈2,수정타운아파트 1동,서구,탄방동,36.358282,127.395424,Y
16,타슈2,문정어린이공원 내,서구,둔산동,36.349982,127.399127,Y
17,타슈2,한아름아파트 108동,서구,월평동,36.363321,127.374482,Y
18,타슈2,다모아아파트 뒤 육교밑,서구,월평동,36.363085,127.366753,Y
19,타슈2,은평공원 내 테니스장 입구,서구,월평동,36.358670,127.363647,Y
20,타슈2,만년동 기업은행,서구,만년동,36.368581,127.379974,Y
21,타슈2,선사유적지 건너편(정부청사쪽),서구,둔산동,36.361063,127.379685,Y
22,타슈2,유성한가족 요양병원 소공원,유성구,봉명동,36.355079,127.350214,Y
23,타슈2,서래갈매기 한밭대점,유성구,덕명동,36.347731,127.301082,Y
24,타슈2,덕명2어린이공원,유성구,덕명동,36.349122,127.298730,Y
25,타슈2,둔산동 경성큰마을 네거리,서구,둔산동,36.348526,127.377202,Y
26,타슈2,미호동 넷제로 공판장,대덕구,미호동,36.466409,127.468306,Y
27,타슈2,과선교 버스정류장(128),대덕구,신탄진동,36.442713,127.429579,Y
28,타슈2,대덕구청 별관,대덕구,오정동,36.346742,127.414613,N
29,타슈2,한일방전,대덕구,오정동,36.352175,127.413985,Y
30,타슈2,동구 보건지소,동구,삼성동,36.342527,127.420480,Y
31,타슈2,도룡동 우성아파트,유성구,도룡동,36.388274,127.381560,Y
32,타슈2,관저더샵 109동,서구,관저동,36.293563,127.328340,Y
33,타슈2,사정동 송원칼국수,중구,사정동,36.295814,127.389263,Y
34,타슈2,안영동 농협하나로마트,중구,안영동,36.288285,127.379374,Y
35,타슈2,문화동 다이소,중구,문화동,36.315527,127.408232,Y
36,타슈2,문화동 홈플러스,중구,문화동,36.320762,127.407117,Y
37,타슈2,서대전 KT,중구,문화동,36.321226,127.413759,Y
38,타슈2,서대전공원 야외공연장 뒤편,중구,문화동,36.320465,127.410680,Y
39,타슈2,문화초네거리(219),중구,유천동,36.313097,127.399471,Y
40,타슈2,머티네거리(220),중구,산성동,36.309219,127.388027,Y
41,타슈2,대전중앙교회(218),중구,대사동,36.318201,127.416864,Y
42,타슈2,오류동 하나은행,중구,오류동,36.326435,127.407365,Y
43,타슈2,중구청(중구청역 1번출구),중구,대흥동,36.325520,127.420748,Y
44,타슈2,대전고1,중구,대흥동,36.322831,127.424108,Y
45,타슈2,대사동 만제한의원(192),중구,대사동,36.317763,127.425594,Y
46,타슈2,보문산 공영주차장,중구,대사동,36.311962,127.420543,Y
47,타슈2,청란여고 방면 부사오거리 정류장(172),중구,부사동,36.313372,127.433870,Y
48,타슈2,대전남부여성가족원(103),동구,대성동,36.302280,127.459788,Y
49,타슈2,그린브라우니 가오점,동구,가오동,36.307578,127.454993,Y
50,타슈2,선화참좋은아파트(유안타증권)(142),중구,선화동,36.331735,127.422352,Y
51,타슈2,목동 한사랑아파트 109동(247),중구,목동,36.333186,127.412241,Y
52,타슈2,신흥마을아파트 102동(191),동구,신흥동,36.321137,127.444912,Y
53,타슈2,판암역 4번출구,동구,판암동,36.317423,127.459736,Y
54,타슈2,대전대 후문(206),동구,용운동,36.335168,127.456467,Y
55,타슈2,대동역 4번출구(153),동구,대동,36.329639,127.442332,Y
56,타슈2,이스트시티 103동,동구,대동,36.328064,127.439434,Y
57,타슈2,천동초등학교(245),동구,천동,36.316754,127.444012,Y
58,타슈2,천동 위드힐아파트 상가동,동구,천동,36.316432,127.443883,Y
59,타슈2,천동 휴먼시아 201동 입구,동구,천동,36.316444,127.447992,Y
60,타슈2,효동 현대아파트 103동 건너편,동구,효동,36.318477,127.442604,Y
61,타슈2,인동네거리 신협,동구,인동,36.321967,127.438045,Y
62,타슈2,홍도동새마을금고 본점 건너편,동구,홍도동,36.346767,127.425019,Y
63,타슈2,홍도동새마을금고 홍도지점,동구,홍도동,36.346455,127.430473,Y
64,타슈2,삼성동 한밭자이아파트 104동 정류장,동구,삼성동,36.341048,127.425233,Y
65,타슈2,대전역(대한통운 건너편)(152),동구,정동,36.332329,127.431977,Y
66,타슈2,삼성네거리(KT&G 동대전지사)(169),동구,삼성동,36.336373,127.430173,Y
67,타슈2,솔브릿지 국제대학(243),동구,삼성동,36.339134,127.433092,Y
68,타슈2,가양비래공원네거리(비래동 현대아파트)(223),대덕구,비래동,36.353363,127.454036,Y
69,타슈2,복합터미널(118),동구,용전동,36.348687,127.434839,Y
70,타슈2,동부네거리(117),동구,용전동,36.350620,127.440334,Y
71,타슈2,용전동 천주교회(119),동구,용전동,36.349346,127.432342,Y
72,타슈2,한국통신 용전지점(120),동구,용전동,36.352852,127.432283,Y
73,타슈2,한전 대전세종충남지역본부 건너편(115),동구,용전동,36.357341,127.434212,Y
74,타슈2,홈플러스(동대전점)(116),동구,용전동,36.355292,127.436636,Y
75,타슈2,용전동 홈플러스,동구,용전동,36.354062,127.437939,Y
76,타슈2,용전네거리 몽벨,동구,용전동,36.358518,127.432426,Y
77,타슈2,동대전새마을금고 용전지점,동구,용전동,36.353727,127.432766,Y
78,타슈2,솔랑마을 아파트 상가,동구,삼성동,36.342778,127.423590,Y
79,타슈2,오정동 한남육교 아래,대덕구,오정동,36.350763,127.419203,Y
80,타슈2,한남대 정문 건너편,대덕구,오정동,36.351508,127.421384,Y
81,타슈2,한남대학교 정류장,대덕구,오정동,36.351517,127.422724,Y
82,타슈2,동광장 중고 휠타이어,동구,소제동,36.333743,127.439426,Y
83,타슈2,대동역 1번출구,동구,대동,36.329150,127.442927,Y
84,타슈2,신흥역 3번출구,동구,판암동,36.320110,127.448328,Y
85,타슈2,충대정문오거리2(정문)(56),유성구,궁동,36.361611,127.345168,Y
86,타슈2,유성숲오투그란데3차아파트 501동,유성구,덕명동,36.346087,127.301116,Y
87,타슈2,계산동 오투그란데리빙포레아파트 301동,유성구,계산동,36.343282,127.303598,Y
88,타슈2,계산동 오투그란데미학아파트 212동,유성구,계산동,36.343094,127.303332,Y
89,타슈2,한밭대학교 학생동아리관,유성구,덕명동,36.354468,127.301220,Y
90,타슈2,덕명동 하우스토리아파트 정류장,유성구,덕명동,36.358214,127.303990,Y
91,타슈2,목련아파트 301동 정류장,서구,둔산동,36.349129,127.392771,Y
92,타슈2,한가람아파트 9동 정류장,서구,탄방동,36.348869,127.392102,Y
93,타슈2,갈마역 4번출구,서구,월평동,36.357967,127.372948,Y
94,타슈2,갈마역 2번출구,서구,갈마동,36.357393,127.372060,Y
95,타슈2,갈마역 1번출구,서구,갈마동,36.357284,127.372839,Y
96,타슈2,월평역 1번출구,서구,월평동,36.357998,127.364775,Y
97,타슈2,월평역 2번출구,서구,월평동,36.358149,127.363708,Y
98,타슈2,진달래아파트(107동) 정류장(34),서구,월평동,36.358172,127.366554,Y
99,타슈2,파랑새아파트 동측입구,서구,둔산동,36.356859,127.376464,Y
100,타슈2,대전도시철도공사,서구,월평동,36.348928,127.353338,Y
101,타슈2,대전일보(41),서구,월평동,36.353493,127.360587,Y
102,타슈2,갈마네거리(42),서구,갈마동,36.353087,127.368377,Y
103,타슈2,월평타운(40),서구,월평동,36.352915,127.356225,Y
104,타슈2,갈마1동 행정복지센터,서구,갈마동,36.350388,127.368016,Y
105,타슈2,갤러리휴리움 101동,서구,갈마동,36.350976,127.368328,Y
106,타슈2,갈마아파트 한마음동산(222),서구,갈마동,36.344292,127.368321,Y
107,타슈2,중앙시장 공영주차장,동구,원동,36.327387,127.433162,Y
108,타슈2,석봉동 서희스타힐스아파트 상가,대덕구,석봉동,36.453755,127.424034,Y
109,타슈2,석봉동 봉주르카운티 A동,대덕구,석봉동,36.447729,127.421224,Y
110,타슈2,덕암동 금호아파트,대덕구,덕암동,36.443567,127.426774,Y
111,타슈2,덕암동 새뜸어린이공원 내,대덕구,덕암동,36.443673,127.421251,Y
112,타슈2,덕암동 신탄주택,대덕구,덕암동,36.442998,127.427668,Y
113,타슈2,신탄진동 이엘치과병원,대덕구,신탄진동,36.447218,127.429807,Y
114,타슈2,동일스위트1단지아파트 104동,대덕구,신탄진동,36.453570,127.430378,Y
115,타슈2,동일스위트1단지아파트 103동,대덕구,신탄진동,36.452769,127.430457,Y
116,타슈2,탄방동 도산서원(용문네거리 방면) 정류장,서구,탄방동,36.343547,127.399822,Y
117,타슈2,탄방동 e편한세상아파트(용문네거리 방면) 정류장,서구,탄방동,36.341426,127.397086,Y
118,타슈2,탄방동 e편한세상아파트 109동,서구,탄방동,36.341160,127.394354,Y
119,타슈2,탄방동 e편한세상아파트 102동,서구,탄방동,36.342649,127.392663,Y
120,타슈2,오류동 주류공동판매장집배송센타,중구,오류동,36.330252,127.401553,Y
121,타슈2,오류동 보령석재,중구,오류동,36.330004,127.401947,N
122,타슈2,용문동 리베라아이누리1단지아파트 101동,서구,용문동,36.335689,127.396120,Y
123,타슈2,순복음교회(수침교)(111),서구,용문동,36.335779,127.396610,Y
124,타슈2,용문역 3번출구(110),서구,용문동,36.337631,127.392142,Y
125,타슈2,래미안아파트1단지 115동 건너편,서구,가장동,36.331987,127.385486,Y
126,타슈2,롯데백화점 허리사랑병원,서구,괴정동,36.339836,127.391096,Y
127,타슈2,롯데백화점 건너편 골드뱅크,서구,탄방동,36.341391,127.389783,Y
128,타슈2,서부농협본점(109),서구,탄방동,36.342308,127.387883,Y
129,타슈2,탄방지하차도(53),서구,탄방동,36.343318,127.383435,Y
130,타슈2,대전대학교 대전한방병원 정류장,서구,둔산동,36.345996,127.379133,Y
131,타슈2,경성큰마을아파트(46),서구,갈마동,36.347661,127.377232,Y
132,타슈2,향촌아파트 101동,서구,둔산동,36.352270,127.376113,Y
133,타슈2,계룡로 대전일보 건너편(갈마동방향),서구,월평동,36.354520,127.365583,Y
134,타슈2,월평동 한국마사회 빌딩,서구,월평동,36.356452,127.363784,Y
135,타슈2,대전과학기술대 정문 건너편,서구,복수동,36.304837,127.374705,Y
136,타슈2,대전과학기술대 정문,서구,복수동,36.304233,127.375310,Y
137,타슈2,용산동 미래남교(현대아울렛 방면),유성구,용산동,36.422576,127.396141,Y
138,타슈2,관평동 테크노타워,유성구,관평동,36.424876,127.393384,Y
139,타슈2,유성구청소년수련관,유성구,죽동,36.380623,127.323343,Y
140,타슈2,침신대네거리 롯데하이마트,유성구,하기동,36.384798,127.320819,Y
141,타슈2,문평동 3.4공단내 새일근린공원,대덕구,문평동,36.446351,127.403352,Y
142,타슈2,문평동 3.4공단내 문평근린공원,대덕구,문평동,36.443165,127.398440,Y
143,타슈2,목상동 상록수아파트 101동 정류장 ,대덕구,목상동,36.449166,127.412828,Y
144,타슈2,구)대덕경찰서(문평동)(123),대덕구,문평동,36.446420,127.406535,Y
145,타슈2,대덕산업단지 BRT정류장(233),대덕구,신일동,36.438440,127.395090,Y
146,타슈2,신일동 삼양패키징 대전2공장 정류장,대덕구,신일동,36.444337,127.404176,Y
147,타슈2,송강체육관(162),유성구,송강동,36.431706,127.387383,Y
148,타슈2,송강근린공원 청솔한양아파트 206동 건너편,유성구,송강동,36.435157,127.383983,Y
149,타슈2,롯데마트(관평점)(164),유성구,관평동,36.428038,127.386658,Y
150,타슈2,롯데마트대덕점(관평중학교 방면) 정류장,유성구,관평동,36.426897,127.389510,Y
151,타슈2,관평동 티플라자,유성구,관평동,36.425805,127.389969,Y
152,타슈2,초록마을아파트3단지(217),서구,복수동,36.300386,127.378899,Y
153,타슈2,삼성동 한밭빌라,동구,삼성동,36.341626,127.414795,Y
154,타슈2,중촌동 금호아파트 8동,중구,중촌동,36.340306,127.406599,Y
155,타슈2,외삼네거리 603동(214),유성구,반석동,36.395288,127.309988,Y
156,타슈2,반석마을8단지아파트 804동,유성구,반석동,36.394052,127.311059,Y
157,타슈2,반석마을8단지아파트 807동 정류장,유성구,반석동,36.395188,127.312011,Y
158,타슈2,반석역 4번출구,유성구,반석동,36.392691,127.313820,Y
159,타슈2,반석역 3번출구,유성구,반석동,36.392270,127.313818,Y
160,타슈2,반석역 1번출구,유성구,반석동,36.391581,127.314564,Y
161,타슈2,반석역 1번출구(179),유성구,반석동,36.391285,127.314854,Y
162,타슈2,반석역 6번출구,유성구,반석동,36.392286,127.314927,Y
163,타슈2,반석역 5번출구,유성구,반석동,36.392494,127.314722,Y
164,타슈2,반석마을5단지아파트 504동,유성구,반석동,36.390051,127.309719,Y
165,타슈2,노은3지구 영무예다음(102동)(250),유성구,지족동,36.374482,127.305412,Y
166,타슈2,노은3지구 트리풀시티포레(105동)(228),유성구,지족동,36.381056,127.305833,Y
167,타슈2,노은새미래숲2단지아파트 201동,유성구,지족동,36.381316,127.302470,Y
168,타슈2,노은3동 행정복지센터(201),유성구,지족동,36.386728,127.308320,Y
169,타슈2,노은해랑숲마을6단지아파트 607동,유성구,지족동,36.385028,127.307980,Y
170,타슈2,노은해랑숲마을5단지아파트 506동 건너편,유성구,지족동,36.386860,127.305524,Y
171,타슈2,송림마을1단지호반아파트 107동 건너편,유성구,반석동,36.389390,127.316354,Y
172,타슈2,지족동 인앤인아파트 101동,유성구,지족동,36.385442,127.318512,Y
173,타슈2,지족역 1번출구,유성구,지족동,36.384041,127.319149,Y
174,타슈2,지족역 2번출구,유성구,지족동,36.383579,127.319792,Y
175,타슈2,지족동 인앤인아파트 103동,유성구,지족동,36.384873,127.319635,Y
176,타슈2,송림마을2단지이노스빌아파트 202동,유성구,하기동,36.387756,127.319703,Y
177,타슈2,송림마을1단지호반아파트 101동,유성구,하기동,36.388078,127.319753,Y
178,타슈2,송림마을2단지이노스빌아파트 입구,유성구,하기동,36.387875,127.321377,Y
179,타슈2,한국침례신학대학교 입구,유성구,하기동,36.386922,127.324541,Y
180,타슈2,대전노은송림마을4단지아파트(401동 입구),유성구,하기동,36.387625,127.324043,N
181,타슈2,송림마을5단지(502동)(229),유성구,하기동,36.390972,127.329523,Y
182,타슈2,연구단지 KT_G 건너편(161),유성구,신성동,36.384780,127.348631,Y
183,타슈2,한화솔루션중앙연구소 입구,유성구,신성동,36.384830,127.351862,Y
184,타슈2,신성동 대림두레아파트 101동,유성구,신성동,36.385107,127.350765,Y
185,타슈2,연구단지운동장 건너편(160),유성구,신성동,36.385517,127.353701,Y
186,타슈2,한국에너지기술연구원 입구,유성구,장동,36.384857,127.359816,Y
187,타슈2,천문대입구(258),유성구,신성동,36.382768,127.354999,Y
188,타슈2,한국생명공학연구원 입구,유성구,어은동,36.377783,127.356450,Y
189,타슈2,카이스트 후문(한국원자력안전기술원)(25),유성구,구성동,36.374198,127.367134,Y
190,타슈2,화폐박물관(24),유성구,가정동,36.376836,127.371026,Y
191,타슈2,유성구청(31),유성구,어은동,36.361649,127.357305,Y
192,타슈2,궁동 다솔아파트 입구,유성구,궁동,36.361324,127.347890,Y
193,타슈2,온천교(충대 방면),유성구,궁동,36.360895,127.344486,Y
194,타슈2,봉명동 현대리조텔오피스텔,유성구,봉명동,36.356127,127.342022,Y
195,타슈2,홍인오피스텔,유성구,봉명동,36.356149,127.342640,Y
196,타슈2,유성온천역 1번출구,유성구,봉명동,36.353291,127.342098,Y
197,타슈2,노브랜드 대전유성온천점,유성구,봉명동,36.352032,127.346343,Y
198,타슈2,봉명동 노블레스3아파트,유성구,봉명동,36.358541,127.349748,Y
199,타슈2,하이랜드1오피스텔,유성구,봉명동,36.358877,127.347443,Y
200,타슈2,봉명동 사이언스타운아파트,유성구,봉명동,36.354888,127.344630,Y
201,타슈2,호텔인터시티,유성구,봉명동,36.354465,127.347672,Y
202,타슈2,도안 호반베르디움 201동(145),유성구,봉명동,36.348885,127.347667,Y
203,타슈2,도안 호반베르디움 211동,유성구,봉명동,36.351459,127.346318,Y
204,타슈2,도안휴먼시아1단지 101동,유성구,봉명동,36.351894,127.343572,Y
205,타슈2,도안휴먼시아1단지 109동 정류장,유성구,봉명동,36.348803,127.342177,Y
206,타슈2,도안6단지센트럴시티아파트 607동 정류장,유성구,봉명동,36.348225,127.342333,Y
207,타슈2,도안6단지센트럴시티아파트 608동 큰길방향,유성구,봉명동,36.347331,127.340631,Y
208,타슈2,도안 금성백조 701동(148),유성구,봉명동,36.348237,127.344469,Y
209,타슈2,도안7단지 작은내수변공원,유성구,봉명동,36.345559,127.344480,Y
210,타슈2,원골네거리(진터네거리 방면),유성구,봉명동,36.344587,127.340525,Y
211,타슈2,도안6단지센트럴시티아파트 입구 롯데리아,유성구,봉명동,36.346075,127.340649,Y
212,타슈2,트리풀시티9단지 920동 정류장,유성구,상대동,36.341505,127.338001,Y
213,타슈2,트리풀시티9단지 913동 정류장,유성구,상대동,36.339453,127.336273,Y
214,타슈2,도안3블럭 한라비발디 306동 정류장,유성구,상대동,36.343115,127.333894,Y
215,타슈2,도안 한라비발디(67),유성구,상대동,36.344845,127.335495,Y
216,타슈2,도안 트리풀시티9단지(504동 건너편)(69),유성구,상대동,36.342697,127.337678,Y
217,타슈2,도안트리풀시티5단지아파트 정문(501동) ,유성구,상대동,36.343942,127.335742,Y
218,타슈2,대전시립박물관1,유성구,상대동,36.341720,127.338979,Y
219,타슈2,목원대 정문 좌측,동구,용계동,36.330653,127.337926,Y
220,타슈2,도안 휴먼시아10단지(70),유성구,원신흥동,36.338016,127.338472,Y
221,타슈2,원신흥도서관,유성구,원신흥동,36.337712,127.338019,Y
222,타슈2,어울림하트아파트 1201동,유성구,원신흥동,36.332458,127.341316,Y
223,타슈2,어울림하트아파트 1204동,유성구,원신흥동,36.332424,127.344083,Y
224,타슈2,도안동 금성백조예미지아파트 107동 정류장,서구,도안동,36.331872,127.343798,Y
225,타슈2,도안동 금성백조예미지아파트 101동,서구,도안동,36.331983,127.341216,Y
226,타슈2,목원대네거리(도로교통공단 방면) 정류장,유성구,원신흥동,36.332575,127.339389,Y
227,타슈2,목원대 정문 우측,서구,도안동,36.330444,127.338310,Y
228,타슈2,도안 천년나무11단지 1110동 건너편,유성구,원신흥동,36.339989,127.344277,Y
229,타슈2,도안 천년나무11단지 1104동,유성구,원신흥동,36.341765,127.347050,Y
230,타슈2,도안 천년나무11단지 북측입구,유성구,원신흥동,36.341652,127.345658,Y
231,타슈2,도안 천년나무11단지 남측입구(1109동),유성구,원신흥동,36.338936,127.345808,Y
232,타슈2,도안 천년나무11단지 1106동,유성구,원신흥동,36.339661,127.348084,Y
233,타슈2,도안 천년나무11단지 1106동 건너편,유성구,원신흥동,36.339173,127.348290,Y
234,타슈2,도안 휴먼시아10단지 1010동,유성구,원신흥동,36.338364,127.338494,Y
235,타슈2,도안동(수목토아파트 방면) 정류장(34890),서구,도안동,36.326001,127.347719,Y
236,타슈2,도안 아이파크아파트 1502동,서구,도안동,36.321177,127.347650,Y
237,타슈2,도안 수목토아파트 101동,서구,도안동,36.320676,127.347587,Y
238,타슈2,도안 계룡리슈빌 1710동,서구,도안동,36.317298,127.347777,Y
239,타슈2,도안 베르디움 104동,서구,도안동,36.312868,127.349708,Y
240,타슈2,도안 계룡리슈빌 1701동,서구,도안동,36.313916,127.345964,Y
241,타슈2,도안동 대전축산농협하나로마트앞,서구,도안동,36.312898,127.350277,Y
242,타슈2,가수원파출소 건너편(253),서구,가수원동,36.308726,127.351583,Y
243,타슈2,가수원네거리 계룡아파트 방면,서구,가수원동,36.304720,127.352526,Y
244,타슈2,은아3단지아파트 302동(육교밑),서구,가수원동,36.304321,127.351054,Y
245,타슈2,가수원네거리 건양대방향 MK 빌딩,서구,가수원동,36.304518,127.349006,N
246,타슈2,관저동 느리울마을11단지아파트 1114동 정류장,서구,관저동,36.302792,127.343594,Y
247,타슈2,관저동 느리울마을11단지아파트 1112동,서구,관저동,36.302039,127.344680,Y
248,타슈2,관저리슈빌아파트 103동 뒤편,서구,관저동,36.300179,127.342744,Y
249,타슈2,느리울마을12단지주공아파트 1202동,서구,관저동,36.298925,127.342112,Y
250,타슈2,느리울중네거리(239),서구,관저동,36.296370,127.340762,Y
251,타슈2,관저동 남대전농협 하나로마트,서구,관저동,36.296800,127.335952,Y
252,타슈2,관저동 대전느리울중학교 남측,서구,관저동,36.296593,127.339067,N
253,타슈2,관저예미지명가의풍경아파트 114동,서구,관저동,36.296060,127.334462,Y
254,타슈2,관저동 마치광장 해뜰마을어린이도서관,서구,관저동,36.297970,127.338627,Y
255,타슈2,관저동 마치광장 서측,서구,관저동,36.297879,127.336990,Y
256,타슈2,관저동 마치광장 북측,서구,관저동,36.298795,127.337445,Y
257,타슈2,관저동 미즈모아산부인과,서구,관저동,36.298865,127.339432,Y
258,타슈2,관저동 하이존 상가,서구,관저동,36.299156,127.340093,Y
259,타슈2,관저리슈빌아파트 101동,서구,관저동,36.300166,127.340954,Y
260,타슈2,건양대병원네거리 리슈빌110동,서구,관저동,36.302124,127.340835,Y
261,타슈2,건양대병원네거리(느리울12단지 방면) 정류장(33590),서구,관저동,36.301894,127.340429,Y
262,타슈2,관저동 공영주차장,서구,관저동,36.300021,127.337900,Y
263,타슈2,관저동 신선마을213동 건너편(관저네거리방면),서구,관저동,36.300367,127.335073,Y
264,타슈2,관저2동 행정복지센터(176),서구,관저동,36.299263,127.335067,Y
265,타슈2,관저동 신선마을 213동 정류장(33450),서구,관저동,36.300288,127.334645,Y
266,타슈2,관저동 행복자전거협동조합 건너편,서구,관저동,36.299139,127.339037,Y
267,타슈2,관저동 신선마을 208동 정류장(33430),서구,관저동,36.299062,127.332332,Y
268,타슈2,관저동 구봉마을8단지 814동 정류장(33420),서구,관저동,36.298805,127.332188,Y
269,타슈2,구봉초등학교 건너편(188),서구,관저동,36.298827,127.329598,Y
270,타슈2,샘물타운아파트(301동)(189),유성구,원내동,36.299738,127.320331,Y
271,타슈2,원내동 샘물타운아파트 305동,유성구,원내동,36.299599,127.322607,Y
272,타슈2,원내동 샘물타운아파트 308동,유성구,원내동,36.298553,127.323147,Y
273,타슈2,서일여고 입구 건너편,유성구,원내동,36.295188,127.321062,Y
274,타슈2,원내동 솔마루어린이공원 입구,유성구,원내동,36.303985,127.320409,Y
275,타슈2,원내동 롯데마트,유성구,원내동,36.300023,127.325134,Y
276,타슈2,대정동 모다아울렛(226),유성구,대정동,36.313023,127.319778,Y
277,타슈2,건양대네거리(175),서구,관저동,36.302408,127.339333,Y
278,타슈2,관저1동 행정복지센터(177),서구,관저동,36.303741,127.337202,Y
279,타슈2,관저동 원앙2단지아파트 205동 건너편,서구,관저동,36.308998,127.340582,Y
280,타슈2,관저동 대자연마을아파트 108동,서구,관저동,36.307592,127.338717,Y
281,타슈2,관저동 대자연마을아파트 상가동,서구,관저동,36.306227,127.337211,Y
282,타슈2,관저동 대자연마을아파트 107동 건너편,서구,관저동,36.307644,127.336623,Y
283,타슈2,원앙네거리(대자연마을아파트 방면),서구,관저동,36.307625,127.335373,Y
284,타슈2,원앙네거리(관저 지하차도 방면),서구,관저동,36.306209,127.335211,Y
285,타슈2,정림삼거리(224),서구,정림동,36.307183,127.363901,Y
286,타슈2,정림동 늘푸른아파트 102동 건너편,서구,정림동,36.301564,127.366558,Y
287,타슈2,정림동 우성1차아파트 117동 건너편,서구,정림동,36.303940,127.365945,Y
288,타슈2,정림동 서구국민체육센터,서구,정림동,36.303639,127.363102,Y
289,타슈2,한남대후문 입구(122),대덕구,중리동,36.358592,127.422672,Y
290,타슈2,국민연금공단 북대전지사 정류장,대덕구,오정동,36.358571,127.412510,Y
291,타슈2,오정네거리(대화중 방면),대덕구,오정동,36.358904,127.415425,Y
292,타슈2,법동 e편한세상대전법동아파트 상가동,대덕구,법동,36.366742,127.426153,Y
293,타슈2,대전중앙병원(73),대덕구,법동,36.367583,127.429641,Y
294,타슈2,보람아파트(75),대덕구,법동,36.366409,127.430400,Y
295,타슈2,송촌먹자골목 공영주차장,대덕구,송촌동,36.365580,127.437946,Y
296,타슈2,법동 그린타운아파트 104동 정류장,대덕구,법동,36.368002,127.434615,Y
297,타슈2,선비마을3단지(77),대덕구,송촌동,36.368186,127.440099,Y
298,타슈2,송촌동 해피존,대덕구,송촌동,36.367041,127.438405,Y
299,타슈2,동춘당공원(81),대덕구,송촌동,36.364606,127.440921,Y
300,타슈2,선비마을입구(76),대덕구,송촌동,36.367629,127.436401,Y
301,타슈2,송촌소방서(80),대덕구,송촌동,36.362965,127.438949,Y
302,타슈2,수도시설관리사업소(79),대덕구,중리동,36.362049,127.435792,Y
303,타슈2,대전지방국세청 서측,대덕구,법동,36.372022,127.426834,Y
304,타슈2,대전지방국세청(71),대덕구,법동,36.371901,127.428417,Y
305,타슈2,법동 삼정하이츠타운아파트 7동 정류장,대덕구,법동,36.373205,127.428062,Y
306,타슈2,신대노인복지관,대덕구,신대동,36.398428,127.420516,Y
307,타슈2,와동 현대아파트(대덕의원)(234),대덕구,신대동,36.400464,127.422657,Y
308,타슈2,상서동 대창아파트 입구,대덕구,상서동,36.425959,127.425862,Y
309,타슈2,송촌대양 공영주차장 정류장,대덕구,송촌동,36.362643,127.438699,Y
310,타슈2,송촌동 대양 어린이 공원 앞,대덕구,송촌동,36.361713,127.439411,Y
311,타슈2,국방신뢰성연구센터 정류장,대덕구,신일동,36.430332,127.412361,Y
312,타슈2,국방신뢰성연구센터 건너편 정류장,대덕구,신일동,36.429973,127.412416,Y
313,타슈2,서대전농협 본점 주차장,중구,유천동,36.318013,127.395195,Y
314,타슈2,유천동 창제한의원,중구,유천동,36.318112,127.396968,Y
315,타슈2,유천신협 본점,중구,유천동,36.319014,127.400586,Y
316,타슈2,유천동 대전중부새마을금고 본점,중구,유천동,36.316586,127.391298,Y
317,타슈2,용문동 롯데렌터카,서구,용문동,36.332336,127.393709,Y
318,타슈2,가장교(성은사)(113),서구,가장동,36.328533,127.388022,Y
319,타슈2,가장동 들말어린이공원 입구,서구,가장동,36.328977,127.381903,Y
320,타슈2,삼부프라자(86),중구,태평동,36.322955,127.393553,Y
321,타슈2,태평초등학교(88),중구,유천동,36.321413,127.393986,Y
322,타슈2,버드내초등학교(89),중구,태평동,36.319767,127.392384,Y
323,타슈2,변동네거리(복음천하교회)(237),서구,변동,36.324294,127.378474,Y
324,타슈2,도마동 서대전중앙교회,서구,도마동,36.314566,127.379227,Y
325,타슈2,도마네거리 하나은행,서구,도마동,36.3133,127.379728,Y
326,타슈2,엑스포아파트4단지 건너편(181),유성구,전민동,36.396622,127.404678,Y
327,타슈2,전민동 엑스포아파트4단지 407동,유성구,전민동,36.396579,127.405123,Y
328,타슈2,문지동 민마루근린공원 ,유성구,문지동,36.392408,127.407177,Y
329,타슈2,전민동 행정복지센터 건너편(180),유성구,전민동,36.399515,127.401644,Y
330,타슈2,충대서문 건너편(궁동교 방면) 정류장,유성구,죽동,36.370704,127.340116,Y
331,타슈2,월드컵경기장역 3번출구,유성구,노은동,36.367194,127.317463,Y
332,타슈2,노은1동 행정복지센터(199),유성구,노은동,36.368054,127.318101,Y
333,타슈2,노은역 3번출구(178),유성구,지족동,36.374293,127.318069,Y
334,타슈2,노은동 피자헛,유성구,노은동,36.372077,127.317515,Y
335,타슈2,노은역(월드컵 경기장방면) 정류장,유성구,지족동,36.373263,127.317652,Y
336,타슈2,지족초등학교/열매마을1단지(215),유성구,지족동,36.379263,127.317653,Y
337,타슈2,자운대아파트 78단지 정문,유성구,신봉동,36.41289,127.342402,Y
338,타슈2,아이파크시티1단지 107동,유성구,상대동,36.338115,127.332058,Y
339,타슈2,새마을금고 원신흥지점,유성구,원신흥동,36.334575,127.337939,Y
340,타슈2,대동 대전지식산업센터,동구,대동,36.32859,127.443672,Y
341,타슈2,대동 새들뫼휴먼시아1단지아파트 104동 입구,동구,대동,36.3285,127.441287,Y
342,타슈2,신안동 블루부코,동구,신안동,36.329697,127.439284,Y
343,타슈2,우송중학교 입구,동구,소제동,36.335685,127.442644,Y
344,타슈2,우송대학교 서캠퍼스 사회복지융합관 건너편,동구,가양동,36.33666,127.443003,Y
345,타슈2,가양동 리첸하우스,동구,가양동,36.341246,127.447402,N
346,타슈2,큰마을아파트 112동 건너편,서구,갈마동,36.34386,127.374519,Y
347,타슈2,상대동 목련2단지아파트 입구,유성구,상대동,36.348281,127.331552,Y
348,타슈2,부사동매표소,중구,부사동,36.312285,127.436254,Y
349,타슈2,대전지방법원 남대전등기소,중구,석교동,36.310285,127.440278,Y
350,타슈2,대전석교초등학교 건너편,중구,석교동,36.307878,127.44508,N
351,타슈2,석교동 스마일약국,중구,석교동,36.306301,127.447838,Y
352,타슈2,대전성모초등학교 입구 정류장,중구,대흥동,36.323238,127.418227,Y
353,타슈2,대전광역시중구청 정문 입구,중구,대흥동,36.325455,127.422024,Y
354,타슈2,대전성모병원 교수회관,중구,대흥동,36.32365,127.419397,Y
355,타슈2,대흥네거리 DS평생교육원,중구,대흥동,36.324779,127.429164,Y
356,타슈2,중촌네거리 선화동 방면,중구,선화동,36.336832,127.416692,Y
357,타슈2,삼성동 대전축산농협,동구,삼성동,36.340669,127.421506,Y
358,타슈2,선화동 현대아파트 102동,중구,선화동,36.332763,127.418845,Y
359,타슈2,선화동 김영근성형외과,중구,선화동,36.335728,127.41689,Y
360,타슈2,선화동 금강회관,중구,선화동,36.334306,127.420776,Y
361,타슈2,선화파출소,중구,선화동,36.334412,127.421616,Y
362,타슈2,둔산동 현대해상,서구,둔산동,36.352974,127.382773,Y
363,타슈2,을지대학병원,서구,둔산동,36.355597,127.382751,Y
364,타슈2,대전경찰청,서구,둔산동,36.353848,127.385255,Y
365,타슈2,시교육청옆 환승지 ,서구,둔산동,36.352524,127.384431,Y
366,타슈2,충남대학교 약학대학,유성구,궁동,36.36877,127.343122,Y
367,타슈2,충남대학교 생명시스템과학대학,유성구,궁동,36.375907,127.343327,Y
368,타슈2,충남대학교 인문대학,유성구,궁동,36.368768,127.341742,Y
369,타슈2,충남대학교 상록회관 입구,유성구,궁동,36.369338,127.351133,Y
370,타슈2,한밭대학교 그린에너지관,유성구,덕명동,36.354511,127.302616,Y
371,타슈2,한밭대학교 학생생활관 목련화동,유성구,덕명동,36.345701,127.304726,Y
372,타슈2,한밭대학교 건설공학관 입구,유성구,덕명동,36.348598,127.301244,Y
373,타슈2,카이스트 서쪽 쪽문(105),유성구,구성동,36.364177,127.358845,N
374,타슈2,카이스트 다솜관(106),유성구,구성동,36.367989,127.356852,Y
375,타슈2,카이스트 창의학습관(22),유성구,구성동,36.370226,127.36215,Y
376,타슈2,카이스트 세종관(107),유성구,구성동,36.370768,127.366645,Y
377,타슈2,카이스트 정문(23),유성구,구성동,36.36617,127.363896,Y
378,타슈2,열매마을 4단지 현대아파트 입구,유성구,지족동,36.378368,127.316853,Y
379,타슈2,캐피탈 타워,서구,둔산동,36.35787,127.387888,Y
380,타슈2,둔산동 사학연금회관,서구,둔산동,36.357874,127.389259,Y
381,타슈2,둥지아파트 110동 정류장,서구,둔산동,36.357854,127.391305,Y
382,타슈2,가람아파트 3동(36),서구,둔산동,36.357489,127.396172,Y
383,타슈2,수정타운아파트 13동(37),서구,둔산동,36.357848,127.397684,Y
384,타슈2,대전시청,서구,둔산동,36.351112,127.384806,Y
385,타슈2,현대아이텔(시청역 6번출구)(19),서구,둔산동,36.351418,127.388051,Y
386,타슈2,오페라웨딩홀 건너편(47),서구,둔산동,36.348453,127.382779,Y
387,타슈2,대전광역시 의회 서편,서구,둔산동,36.350045,127.383203,Y
388,타슈2,한국농어촌공사(49),서구,탄방동,36.347204,127.390034,Y
389,타슈2,탄방역 4번출구(대전종합고용지원센터)(48),서구,탄방동,36.346408,127.385243,Y
390,타슈2,국민연금서대전지사 정류장(탄방역 방면),서구,탄방동,36.346224,127.382461,Y
391,타슈2,현대자동차블루핸즈 둔산동부점,서구,둔산동,36.345914,127.381544,Y
392,타슈2,한가람네거리 삼성디지털프라자,서구,탄방동,36.346524,127.389871,Y
393,타슈2,한가람아파트(50),서구,탄방동,36.346847,127.393365,Y
394,타슈2,공작한양아파트 11동,서구,탄방동,36.347994,127.395073,Y
395,타슈2,국화아파트 501동(16),서구,둔산동,36.353971,127.395465,Y
396,타슈2,목동더샵리슈빌아파트 정문,중구,목동,36.333444,127.41473,Y
397,타슈2,목동더샵리슈빌아파트 남측,중구,목동,36.331896,127.415147,Y
398,타슈2,엑스포과학공원(27),유성구,도룡동,36.377591,127.37912,Y
399,타슈2,전자통신연구원(158),유성구,가정동,36.38411,127.36666,Y
400,타슈2,대덕대학교(259),유성구,장동,36.390204,127.362603,Y
401,타슈2,죽동 대원칸타빌(227),유성구,죽동,36.369165,127.333954,Y
402,타슈2,궁동네거리(54),유성구,장대동,36.365027,127.338674,N
403,타슈2,온천2동 행정복지센터(232),유성구,장대동,36.364921,127.333596,Y
404,타슈2,한진오피스텔(57),유성구,봉명동,36.357899,127.342711,Y
405,타슈2,현충원역 3번출구(183),유성구,구암동,36.359578,127.320842,Y
406,타슈2,홈플러스(유성점)(32),유성구,봉명동,36.359359,127.354231,Y
407,타슈2,둔산 하이마트(14),서구,둔산동,36.355546,127.379177,Y
408,타슈2,서대전역(242),중구,오류동,36.322134,127.404813,Y
409,타슈2,서대전역네거리(135),중구,오류동,36.320736,127.405943,Y
410,타슈2,서대전네거리역 3번출구(139),중구,오류동,36.322278,127.411375,Y
411,타슈2,중촌초등학교 건너편(157),중구,중촌동,36.340623,127.410669,Y
412,타슈2,무역전시관입구(택시승강장)(1),유성구,도룡동,36.374363,127.387482,Y
413,타슈2,대전컨벤션센터(2),유성구,도룡동,36.374418,127.392016,Y
414,타슈2,스마트시티(201동)(28),유성구,도룡동,36.37789,127.390647,Y
415,타슈2,선사유적지공용주차장(30),서구,월평동,36.361898,127.379217,Y
416,타슈2,무지개아파트(173),서구,월평동,36.357919,127.377163,Y
417,타슈2,도로교통공단(건너편 라도무스)(261),유성구,원신흥동,36.332696,127.333147,Y
418,타슈2,목원대학교 입구(108),동구,용계동,36.33163,127.33794,Y
419,타슈2,양우건설 내안애(187),유성구,원신흥동,36.343808,127.347395,Y
420,타슈2,도안 휴먼시아6단지(66),유성구,봉명동,36.345581,127.340663,Y
421,타슈2,도안 센트롤시티(65),유성구,봉명동,36.348791,127.344385,Y
422,타슈2,용정초등학교(130),대덕구,신탄진동,36.454095,127.436957,Y
423,타슈2,삼정삼거리(132),동구,삼정동,36.449595,127.456612,Y
424,타슈2,대전평생교육진흥원 본관,중구,선화동,36.327708,127.419157,Y
425,타슈2,"둥지아파트107동,사학연금회관버스정류장",서구,탄방동,36.3588,127.390439,Y
426,타슈2,샘머리아파트 209동,서구,둔산동,36.36104,127.390447,Y
427,타슈2,남선공원 명성디자인기획,서구,탄방동,36.347244,127.397577,Y
428,타슈2,탄방동 1333 ,서구,탄방동,36.347382,127.400373,Y
429,타슈2,둔산 훼미리타운,서구,둔산동,36.35112,127.399092,N
430,타슈2,초록마을 둔산점,서구,둔산동,36.351103,127.397032,Y
431,타슈2,맘스터치 대전둔산점,서구,둔산동,36.350134,127.390006,Y
432,타슈2,샘머리아파트 107동,서구,둔산동,36.364294,127.390451,Y
433,타슈2,둔산동 하이투자증권,서구,둔산동,36.352483,127.390068,Y
434,타슈2,메트로펠리스오피스텔,서구,둔산동,36.352522,127.386933,Y
435,타슈2,더캐피탈웨딩,서구,둔산동,36.358252,127.386982,Y
436,타슈2,한국생산성본부,서구,둔산동,36.358928,127.386863,N
437,타슈2,대전가정법원 입구,서구,둔산동,36.352751,127.386565,Y
438,타슈2,시청역 1번출구,서구,둔산동,36.350719,127.38654,Y
439,타슈2,시청역 6번출구,서구,둔산동,36.351423,127.387039,Y
440,타슈2,시청역 4번출구,서구,둔산동,36.35152,127.386521,Y
441,타슈2,국화동성아파트 상가,서구,둔산동,36.355766,127.399063,N
442,타슈2,수정아파트 상가,서구,둔산동,36.359179,127.395393,Y
443,타슈2,둔산동 2116 공원,서구,둔산동,36.349157,127.398659,Y
444,타슈2,둔산테크노(월평주공3단지 뒤편),서구,월평동,36.364732,127.374154,Y
445,타슈2,황실타운상가,서구,월평동,36.359912,127.37186,Y
446,타슈2,월평동 미래빌딩,서구,월평동,36.360274,127.376789,Y
447,타슈2,만년동 공영주차장,서구,만년동,36.366298,127.372605,Y
448,타슈2,서구 만년동 10(만년고 뒤편),서구,만년동,36.367263,127.372333,Y
449,타슈2,만년동 초원아파트105동 육교 밑,서구,만년동,36.368247,127.379332,Y
450,타슈2,만년동 초원아파트105동 육교 밑2,서구,만년동,36.368138,127.37946,N
451,타슈2,만년동 크리스탈웨딩홀,서구,만년동,36.369271,127.381306,Y
452,타슈2,만년동 빽다방,서구,만년동,36.368537,127.38252,Y
453,타슈2,만년동 엑스포오피스텔,서구,만년동,36.367285,127.382452,Y
454,타슈2,만년동 까페베네,서구,만년동,36.366118,127.382011,Y
455,타슈2,만년동 왕가한정식,서구,만년동,36.365834,127.381235,Y
456,타슈2,둔산경찰서 뒤,서구,둔산동,36.358615,127.37973,Y
457,타슈2,중촌동 115-7번지,중구,중촌동,36.339571,127.413904,Y
458,타슈2,중촌동 무릉어린이공원 내,중구,중촌동,36.342298,127.410317,N
459,타슈2,목동 올리브힐아파트 정문,중구,목동,36.336824,127.406181,Y
460,타슈2,목양마을아파트,중구,목동,36.335592,127.403484,N
461,타슈2,탄방동 공영주차장 내,서구,탄방동,36.345683,127.399695,Y
462,타슈2,봉명동 투유1차아파트,유성구,봉명동,36.355963,127.35146,Y
463,타슈2,도미노피자 대전도안점,서구,가수원동,36.307266,127.352055,Y
464,타슈2,새마을금고 (도안동 1788),서구,가수원동,36.304983,127.351179,Y
465,타슈2,도안동 1782(MK빌딩),서구,가수원동,36.304612,127.349871,Y
466,타슈2,둔산 SK브로드밴드,서구,둔산동,36.351133,127.380637,Y
467,타슈2,은하수아파트 102동,서구,둔산동,36.348739,127.380121,Y
468,타슈2,덕명동 S-OIL 건너편,유성구,덕명동,36.347763,127.299878,Y
469,타슈2,성하타운,대덕구,신탄진동,36.441003,127.430795,Y
470,타슈2,신탄진초등학교 뒤편,대덕구,석봉동,36.449555,127.421339,Y
471,타슈2,석봉어린이공원,대덕구,석봉동,36.449405,127.427514,Y
472,타슈2,도룡동 LG대전어린이집,유성구,도룡동,36.385872,127.376789,Y
473,타슈2,자운동 농부의 갈비,유성구,자운동,36.39545,127.35205,Y
474,타슈2,구봉마을 9단지 904동,서구,관저동,36.296193,127.331457,Y
475,타슈2,구봉마을 8단지 805동,서구,관저동,36.296664,127.330118,N
476,타슈2,구봉마을 7단지 707동,서구,관저동,36.296738,127.327595,Y
477,타슈2,대화동 GS25,대덕구,대화동,36.363001,127.418175,Y
478,타슈2,대화동 두리웨딩홀,대덕구,대화동,36.367275,127.419301,Y
479,타슈2,대화동 만민어린이집,대덕구,대화동,36.367763,127.416405,Y
480,타슈2,대화동 오광무지개아파트 3가,대덕구,대화동,36.36456,127.410347,Y
481,타슈2,대화동 대화아파트 건너편,대덕구,대화동,36.367829,127.414137,Y
482,타슈2,구암역,유성구,구암동,36.356438,127.331084,Y
483,타슈2,구암동 신성빌라,유성구,구암동,36.356485,127.331782,Y
484,타슈2,장대노인회관,유성구,장대동,36.359474,127.333415,Y
485,타슈2,장대4어린이공원,유성구,장대동,36.360824,127.33369,Y
486,타슈2,장대동 공영주차장,유성구,장대동,36.359612,127.331944,Y
487,타슈2,장대공원,유성구,장대동,36.358465,127.337364,Y
488,타슈2,장대경로당,유성구,장대동,36.358896,127.335469,Y
489,타슈2,문화동 충청남도과학직업교육원,중구,문화동,36.314167,127.411108,Y
490,타슈2,문화동 천근어린이공원,중구,문화동,36.311091,127.402304,Y
491,타슈2,산성시장 입구,중구,산성동,36.306379,127.386902,Y
492,타슈2,산성동 원대어린이공원,중구,산성동,36.30551,127.385061,Y
493,타슈2,산성동 한밭가든아파트 입구,중구,산성동,36.304591,127.384397,Y
494,타슈2,산성동 한밭가든아파트 103동,중구,산성동,36.306554,127.38408,Y
495,타슈2,산성네거리 김밥천국 건너편,중구,산성동,36.302865,127.386362,Y
496,타슈2,산성네거리 김밥친구,중구,산성동,36.30307,127.386083,Y
497,타슈2,산성동 유등천 리버뷰아파트,중구,산성동,36.303748,127.384246,Y
498,타슈2,산성동 으뜸마을,중구,산성동,36.301882,127.388819,Y
499,타슈2,산성동 도림빌라,중구,산성동,36.301836,127.387322,Y
500,타슈2,안영동 제3노외 주차장 공원,중구,안영동,36.290177,127.379514,Y
501,타슈2,사정동 성산마을110동(김밥친구),중구,사정동,36.295702,127.383293,Y
502,타슈2,사정동 한솔빌라,중구,사정동,36.294339,127.38943,Y
503,타슈2,산성주민복지관,중구,산성동,36.304437,127.383345,Y
504,타슈2,문화동 삼성푸른아파트 101동,중구,문화동,36.308759,127.396892,Y
505,타슈2,문화동 주공3단지아파트 302동,중구,문화동,36.310234,127.399399,Y
506,타슈2,문화동 센트럴파크 105동,중구,문화동,36.31607,127.407346,Y
507,타슈2,문화동 훼미리맨션 A동,중구,문화동,36.317554,127.406964,Y
508,타슈2,문화동 삼익아파트 3동 건너편,중구,문화동,36.319427,127.406166,Y
509,타슈2,문화동 세이백화점,중구,문화동,36.321189,127.408707,Y
510,타슈2,서대전역 1번출구,중구,문화동,36.322092,127.412687,N
511,타슈2,서대전역 4번출구,중구,오류동,36.322718,127.411924,Y
512,타슈2,서대전역 5번출구,중구,용두동,36.322967,127.41213,Y
513,타슈2,서대전역 7번출구,중구,문화동,36.322234,127.413078,Y
514,타슈2,센트럴파크 아파트 3단지 302동(137),중구,문화동,36.318144,127.41185,Y
515,타슈2,문화동 하우스토리2차아파트,중구,문화동,36.320105,127.414037,Y
516,타슈2,문화동 하우스토리1차아파트,중구,대사동,36.320166,127.415835,Y
517,타슈2,대흥동 성사진관,중구,대흥동,36.319981,127.420017,Y
518,타슈2,충대 의생명융합연구센터,중구,문화동,36.317411,127.413219,Y
519,타슈2,문화동 센트럴파크 3단지 307동,중구,문화동,36.317873,127.413673,Y
520,타슈2,문화동 센트럴파크 2단지 209동,중구,문화동,36.316509,127.409984,Y
521,타슈2,문화동 BMK컨벤션,중구,문화동,36.320017,127.404395,Y
522,타슈2,문화1동 행정복지센터,중구,문화동,36.315235,127.40643,Y
523,타슈2,태평동 카페 어웨이프롬,중구,태평동,36.328537,127.398862,Y
524,타슈2,태평동 한국정형외과 ,중구,태평동,36.327252,127.399672,Y
525,타슈2,태평동 유등마을 112동,중구,태평동,36.330758,127.398262,Y
526,타슈2,태평동 유등마을 111동,중구,태평동,36.331264,127.398105,Y
527,타슈2,태평중학교 버스정류장,중구,태평동,36.329639,127.396745,Y
528,타슈2,태평동 호암컨벤션,중구,태평동,36.329596,127.3964,Y
529,타슈2,태평2경로당,중구,태평동,36.328695,127.393671,Y
530,타슈2,태평2동 여성자율방범대,중구,태평동,36.331442,127.395783,N
531,타슈2,태평동 행정복지센터,중구,태평동,36.326136,127.396989,Y
532,타슈2,산성동 원마트,중구,산성동,36.310882,127.391721,Y
533,타슈2,산성동 한소망교회,중구,산성동,36.310262,127.39029,Y
534,타슈2,산성동 당대어린이공원,중구,산성동,36.308753,127.391481,Y
535,타슈2,산성동 당디숯불갈비,중구,산성동,36.310054,127.388576,Y
536,타슈2,유천동 버드내공원,중구,유천동,36.312883,127.395984,Y
537,타슈2,충남대학병원 동문(버스정류장),중구,대사동,36.317438,127.417701,Y
538,타슈2,용두동 희영빌딩,중구,용두동,36.326642,127.407761,Y
539,타슈2,용두동 정담치과,중구,용두동,36.323011,127.415232,Y
540,타슈2,문화동 센트럴스타클래스아파트,중구,문화동,36.322622,127.415101,Y
541,타슈2,대흥오거리 피자2001,중구,대흥동,36.322846,127.422736,Y
542,타슈2,대흥동 드림시티,중구,대흥동,36.324053,127.426964,Y
543,타슈2,대흥동 YWCA ,중구,대흥동,36.323623,127.426457,Y
544,타슈2,대흥동 세종노인전문병원,중구,대흥동,36.321164,127.430376,N
545,타슈2,대흥동 원예농협,중구,대흥동,36.321892,127.429644,Y
546,타슈2,대흥동 자이아파트 2단지 공원,중구,대흥동,36.320888,127.427149,Y
547,타슈2,대사동 느티나무 보호수,중구,대사동,36.317786,127.425913,Y
548,타슈2,대전중학교 건너편(보문오거리 방면),중구,대흥동,36.320298,127.424093,Y
549,타슈2,대흥동 동네방네식당,중구,대흥동,36.319064,127.425097,Y
550,타슈2,대흥동 대전시 노인복지관,중구,대흥동,36.320702,127.420424,Y
551,타슈2,대흥동 세광교회,중구,대흥동,36.319166,127.424723,Y
552,타슈2,보문산 진입로 주차장,중구,대사동,36.315025,127.42434,Y
553,타슈2,부사동 우체국,중구,부사동,36.318666,127.431882,Y
554,타슈2,문창동 행정복지센터,중구,문창동,36.316141,127.43769,Y
555,타슈2,안골네거리 다이소,서구,내동,36.334292,127.371311,Y
556,타슈2,내동 장난감할인마트,서구,내동,36.334194,127.36925,Y
557,타슈2,변동 평화어린이공원,서구,변동,36.330216,127.368221,Y
558,타슈2,변동 BB창의어린이집 공원,서구,변동,36.331798,127.368775,Y
559,타슈2,변동 시온성교회 입구,서구,변동,36.327971,127.370374,Y
560,타슈2,변동 수정재,서구,변동,36.329611,127.370752,Y
561,타슈2,도마동 대아아파트104동,서구,도마동,36.325565,127.370232,Y
562,타슈2,서대전여고 목운주택입구 방면 정류장,서구,도마동,36.32669,127.370918,Y
563,타슈2,도마동 경남아파트 102동,서구,도마동,36.32155,127.370012,Y
564,타슈2,도마동 정철어학원,서구,도마동,36.323368,127.370419,Y
565,타슈2,도마동 경남아파트2단지106동,서구,도마동,36.322433,127.36859,Y
566,타슈2,도마동 경남아파트2단지112동,서구,도마동,36.322638,127.368466,Y
567,타슈2,도마동 양지타운아파트 입구,서구,도마동,36.318299,127.368682,N
568,타슈2,도마동 경남아파트1단지 3동,서구,도마동,36.320815,127.370582,Y
569,타슈2,도마동 경남아파트113동,서구,도마동,36.320684,127.370318,Y
570,타슈2,도마동 공굴안 정류장(복음양지아파트 방면),서구,도마동,36.313298,127.369122,Y
571,타슈2,대전운전면허시험장,동구,대별동,36.286054,127.462647,Y
572,타슈2,대성동 대별교 SK남대전IC충전소,동구,대성동,36.290143,127.463398,Y
573,타슈2,은어송코오롱하늘채2차아파트 103동,동구,대성동,36.298454,127.458833,Y
574,타슈2,가오동 오토카센타,동구,가오동,36.303655,127.454675,Y
575,타슈2,가오동 킹스 불가마사우나,동구,가오동,36.30941,127.455016,Y
576,타슈2,가오고등학교 건너편,동구,가오동,36.310242,127.455518,Y
577,타슈2,동구청,동구,가오동,36.311497,127.455486,Y
578,타슈2,은어송마을6단지아파트602동,동구,가오동,36.310186,127.456731,Y
579,타슈2,가오30호어린이공원,동구,가오동,36.310788,127.456258,Y
580,타슈2,은어송마을3단지아파트상가,동구,가오동,36.310467,127.459805,Y
581,타슈2,은어송마을5단지우미린아파트 입구,동구,가오동,36.30851,127.459239,Y
582,타슈2,가오동 신한은행(99),동구,가오동,36.306366,127.457102,Y
583,타슈2,KB국민은행 가오동지점,동구,가오동,36.30713,127.456281,Y
584,타슈2,은어송네거리 국민은행 건너편,동구,가오동,36.307283,127.456628,Y
585,타슈2,은어송마을입구(98),동구,가오동,36.305539,127.454574,Y
586,타슈2,가오동 엔제리너스,동구,가오동,36.305386,127.454794,Y
587,타슈2,천동주공아파트 7동,동구,천동,36.309428,127.449306,Y
588,타슈2,천동주공아파트 14동 정류장,동구,가오동,36.308087,127.450618,Y
589,타슈2,가오동 도원빌라,동구,가오동,36.309749,127.452955,Y
590,타슈2,낭월동 석천들주공아파트 101동,동구,낭월동,36.276395,127.468364,Y
591,타슈2,낭월동 석천들주공아파트 112동 건너편,동구,낭월동,36.276448,127.46708,Y
592,타슈2,낭월동 옥토끼 어린이공원,동구,낭월동,36.27548,127.467179,Y
593,타슈2,낭월동 향기나무어린이집 공원,동구,낭월동,36.279226,127.467064,Y
594,타슈2,낭월3호어린이공원,동구,낭월동,36.281904,127.46644,Y
595,타슈2,대성동 현대무역 정류장,동구,대성동,36.296016,127.459778,Y
596,타슈2,대성동삼거리 옥계교방면 정류장,동구,대성동,36.296466,127.459345,Y
597,타슈2,옥계동 새마을금고(248),중구,옥계동,36.298918,127.454274,Y
598,타슈2,호동우체국 건너편(194),중구,호동,36.304888,127.449123,Y
599,타슈2,석교동 행정복지센터(193),중구,석교동,36.309763,127.442012,Y
600,타슈2,중촌네거리(목동우체국 방면)(156),중구,중촌동,36.335998,127.414944,Y
601,타슈2,대전동부경찰서 입구 버스정류장,동구,인동,36.322447,127.441701,Y
602,타슈2,대전동부경찰서 건너편 버스정류장,동구,신인동,36.322629,127.441471,Y
603,타슈2,미리내아파트(94),동구,판암동,36.316857,127.454767,Y
604,타슈2,판암역 2번출구,동구,판암동,36.316709,127.458225,Y
605,타슈2,은어송마을4단지(101),동구,가오동,36.310099,127.461413,Y
606,타슈2,용운국제수영장(255),동구,용운동,36.324775,127.46521,Y
607,타슈2,용운동 e편한세상대전에코포레아파트 114동,동구,용운동,36.326879,127.464931,Y
608,타슈2,용운동 e편한세상대전에코포레아파트 상가,동구,용운동,36.327781,127.462087,Y
609,타슈2,용운동 e편한세상대전에코포레아파트 101동,동구,용운동,36.330637,127.463502,Y
610,타슈2,용운동 선암어린이공원,동구,용운동,36.325917,127.460065,Y
611,타슈2,대전대 입구 용운119안전센터 ,동구,용운동,36.33109,127.461373,Y
612,타슈2,대전대학교 맥센터 정류장,동구,용운동,36.335661,127.463469,N
613,타슈2,판암동 주공4차아파트 413동,동구,판암동,36.322175,127.460763,Y
614,타슈2,판암2동 행정복지센터,동구,판암동,36.320364,127.457431,N
615,타슈2,용운종합사회복지관,동구,용운동,36.327951,127.454767,Y
616,타슈2,용방마을아파트 315동,동구,용운동,36.326776,127.450476,Y
617,타슈2,용운동 기쁨음악학원 정류장,동구,용운동,36.32718,127.449978,Y
618,타슈2,대동 펜타뷰아파트 107동,동구,대동,36.327838,127.446551,Y
619,타슈2,용운동 용수골장작불가마 정류장,동구,용운동,36.333754,127.455555,Y
620,타슈2,용운동 빅하우스 빌라 정류장,동구,용운동,36.337688,127.457219,Y
621,타슈2,용운동 연광사 건너편 정류장,동구,용운동,36.332882,127.453455,Y
622,타슈2,용운동 모닝빌 A동 뒤편,동구,용운동,36.331233,127.454531,Y
623,타슈2,우송대 서문 건너편(244),동구,가양동,36.338902,127.445039,Y
624,타슈2,성남동 휴먼시아스마트빌104동 정류장,동구,성남동,36.34369,127.433993,Y
625,타슈2,성남동 스마트뷰아파트 110동,동구,성남동,36.341915,127.433,Y
626,타슈2,삼성동 주공삼성타운아파트 201동,동구,삼성동,36.341109,127.431927,Y
627,타슈2,대전역 동광장 버스정류장,동구,소제동,36.333797,127.437407,Y
628,타슈2,신안동 대전화병원(베스티안 화상병원),동구,신안동,36.328635,127.439549,Y
629,타슈2,천동초등학교(천동휴먼시아 방면) 정류장,동구,천동,36.315852,127.444459,Y
630,타슈2,천동 휴먼시아2단지아파트 103동,동구,천동,36.313949,127.445733,Y
631,타슈2,천동 위드힐아파트 301동 건너편,동구,천동,36.317054,127.443137,Y
632,타슈2,효동 현대아파트 상가동,동구,효동,36.31828,127.442156,Y
633,타슈2,효동 현대아파트 104동,동구,효동,36.318002,127.439617,Y
634,타슈2,인동 현대아파트 104동,동구,인동,36.319666,127.438916,Y
635,타슈2,인동 농협 영농자재백화점,동구,인동,36.319353,127.438766,N
636,타슈2,인동네거리 일육우드,동구,인동,36.321705,127.438225,Y
637,타슈2,인동네거리(166),동구,인동,36.321923,127.438047,N
638,타슈2,인동 하나은행,동구,인동,36.321993,127.437513,Y
639,타슈2,원동네거리 KT,동구,인동,36.325654,127.43558,Y
640,타슈2,인동 참좋은아파트 정류장,동구,인동,36.323523,127.437069,Y
641,타슈2,원동 중앙프라자 정류장,동구,원동,36.328334,127.434065,Y
642,타슈2,정동 하나은행 건너편,동구,정동,36.334298,127.431441,Y
643,타슈2,문지동 국립문화재연구원,유성구,문지동,36.390565,127.392119,Y
644,타슈2,삼성동 한밭자이아파트 정문 건너편,동구,삼성동,36.341018,127.425788,Y
645,타슈2,삼성신협 본점,동구,삼성동,36.34017,127.426522,Y
646,타슈2,삼성네거리(한밭자이아파트 방면) 정류장,동구,삼성동,36.338717,127.429027,Y
647,타슈2,대전보건대(225),동구,가양동,36.349253,127.451694,Y
648,타슈2,가양2동 행정복지센터 건너편(236),동구,가양동,36.349025,127.448029,Y
649,타슈2,명석고네거리 원한의원 정류장,동구,가양동,36.354318,127.454254,Y
650,타슈2,비래동 제1공영주차장,대덕구,비래동,36.354477,127.453147,Y
651,타슈2,비래동 산림조합(비래휴플러스아파트 104동)(185),대덕구,비래동,36.355158,127.445896,Y
652,타슈2,비래동 삼호아파트1동 정류장,대덕구,비래동,36.35444,127.447812,Y
653,타슈2,비래동 금성백조1차아파트 입구 정류장,대덕구,비래동,36.356287,127.454745,Y
654,타슈2,비래동 금성백조2차아파트 정류장,대덕구,비래동,36.356984,127.45368,N
655,타슈2,비래동 금성백조2차아파트 103동,대덕구,비래동,36.357743,127.451331,Y
656,타슈2,비래동 비래프라자,대덕구,비래동,36.354552,127.449529,Y
657,타슈2,용전동 종근당빌딩,동구,용전동,36.353404,127.439664,Y
658,타슈2,용전동 LG전자 동대전서비스센터,동구,용전동,36.355014,127.437729,Y
659,타슈2,한전 대전세종충남지역본부 입구 정류장,동구,용전동,36.357675,127.434544,Y
660,타슈2,용전중학교 입구 정류장,동구,용전동,36.355568,127.432564,Y
661,타슈2,용전동우체국,동구,용전동,36.35471,127.432884,Y
662,타슈2,용전노인정,동구,용전동,36.351448,127.433624,Y
663,타슈2,홍도동 시영아파트 2동 정류장,동구,홍도동,36.345421,127.421516,Y
664,타슈2,홍도동 시영아파트 1동 건너편 정류장,동구,홍도동,36.345572,127.422128,Y
665,타슈2,오정동 오정신용협동조합,대덕구,오정동,36.348127,127.415345,Y
666,타슈2,가양동 대주파크빌아파트 102동 정류장,동구,가양동,36.342924,127.44783,Y
667,타슈2,가양요양병원 정류장,동구,가양동,36.346095,127.446903,Y
668,타슈2,가양네거리 현대자동차 대전서비스센터,동구,가양동,36.34474,127.446127,Y
669,타슈2,가양네거리 양반고을,동구,가양동,36.34557,127.446389,Y
670,타슈2,동부터미널 건너편 선샤인 호텔 웨딩홀,동구,가양동,36.349275,127.437782,Y
671,타슈2,가양1동 행정복지센터,동구,가양동,36.346923,127.441359,Y
672,타슈2,가양동 아침마을휴먼시아아파트116,동구,가양동,36.340707,127.441737,Y
673,타슈2,가양동 아침마을휴먼시아아파트116 건너편,동구,가양동,36.339958,127.44134,Y
674,타슈2,동구국민체육센터 건너편,동구,가양동,36.339091,127.438947,Y
675,타슈2,신흥역 2번출구,동구,판암동,36.319737,127.447964,Y
676,타슈2,신흥역 1번출구,동구,판암동,36.319294,127.448996,Y
677,타슈2,신흥역 4번출구,동구,판암동,36.319767,127.449028,Y
678,타슈2,가양동 와와툴코리아,동구,가양동,36.348707,127.443426,Y
679,타슈2,가양도서관 버스 정류장,동구,가양동,36.348545,127.444001,Y
680,타슈2,대전여자상업고등학교 정류장,중구,선화동,36.332995,127.420758,Y
681,타슈2,선화동 대전상호저축은행,중구,선화동,36.330542,127.423302,Y
682,타슈2,선화동 농협,중구,선화동,36.32761,127.422466,Y
683,타슈2,중구청 건너편 정류장,중구,대흥동,36.325096,127.422422,Y
684,타슈2,대전대흥동우체국,중구,대흥동,36.325408,127.431979,Y
685,타슈2,대흥동 이안과병원 정류장,중구,대흥동,36.326057,127.427569,Y
686,타슈2,오룡역 1번출구,중구,오류동,36.328108,127.405279,Y
687,타슈2,용문역 1번출구,서구,용문동,36.337799,127.393557,Y
688,타슈2,용문역 2번출구,서구,용문동,36.337999,127.393114,N
689,타슈2,탄방역 5번출구,서구,탄방동,36.344964,127.385206,Y
690,타슈2,탄방역 1번출구,서구,탄방동,36.345282,127.384469,Y
691,타슈2,탄방역 3번출구,서구,탄방동,36.345641,127.384818,Y
692,타슈2,수통골삼거리 학하지구 공영 주차장,유성구,덕명동,36.347516,127.296977,Y
693,타슈2,계산동 오투그란데리빙포레아파트 308동,유성구,계산동,36.344236,127.302948,Y
694,타슈2,계산동 오투그란데미학아파트 210동,유성구,계산동,36.344169,127.302562,Y
695,타슈2,계산동 한아름마트,유성구,계산동,36.341399,127.303138,Y
696,타슈2,계산동 학하리슈빌학의뜰아파트 입구,유성구,계산동,36.33771,127.303088,Y
697,타슈2,학하네거리 학의뜰아파트방향 정류장,유성구,계산동,36.340988,127.304846,Y
698,타슈2,한밭대학교 미래동 후문,유성구,덕명동,36.346023,127.303663,Y
699,타슈2,한밭대학교 1차btl학생생활관 입구,유성구,덕명동,36.345347,127.304752,Y
700,타슈2,덕명공영주차장,유성구,덕명동,36.359446,127.301643,Y
701,타슈2,구암동 왕가교,유성구,구암동,36.358792,127.307842,Y
702,타슈2,갈마역 3번출구,서구,월평동,36.357958,127.372021,Y
703,타슈2,월평역 3번출구,서구,월평동,36.358462,127.364113,Y
704,타슈2,월평역 4번출구,서구,월평동,36.358385,127.364689,Y
705,타슈2,월평동 사정어린이공원,서구,월평동,36.35671,127.365804,Y
706,타슈2,월평중학교(갈마역 방면) 정류장,서구,월평동,36.357834,127.366558,Y
707,타슈2,갈마초교삼거리(갈마네거리방면) 정류장,서구,갈마동,36.354779,127.369015,Y
708,타슈2,갈마네거리(갈마초방면) 정류장,서구,갈마동,36.353789,127.369215,Y
709,타슈2,파랑새아파트 서측입구,서구,둔산동,36.356397,127.37449,Y
710,타슈2,향촌아파트 116동 정류장,서구,둔산동,36.354981,127.374504,Y
711,타슈2,갑천역 3번출구,서구,월평동,36.354966,127.354727,Y
712,타슈2,패션월드(39),서구,월평동,36.351202,127.351709,Y
713,타슈2,갈마지구대,서구,갈마동,36.352519,127.368467,Y
714,타슈2,갈마중학교입구(상수도사업본부 방면)정류장,서구,갈마동,36.349516,127.36808,Y
715,타슈2,상수도사업본부(갈마중학교입구 방면)정류장,서구,갈마동,36.346465,127.36854,Y
716,타슈2,갈마동 양녕요양병원,서구,갈마동,36.344401,127.368639,Y
717,타슈2,갈마동 서구보훈회관 건너편,서구,갈마동,36.348199,127.36815,Y
718,타슈2,갈마동 서구보훈회관 공원,서구,갈마동,36.348589,127.368438,Y
719,타슈2,갈마동 굿에프터눈안경원,서구,갈마동,36.342224,127.371818,Y
720,타슈2,대흥교 원동네거리 방면,동구,원동,36.326169,127.433233,Y
721,타슈2,덕암동 대청새마을금고 새뜸지점,대덕구,덕암동,36.448075,127.419894,Y
722,타슈2,대전이문고(석봉네거리 방면) 정류장,대덕구,석봉동,36.446553,127.422216,N
723,타슈2,자연애마트 신탄진점,대덕구,덕암동,36.443802,127.425455,Y
724,타슈2,석봉문화센터(211),대덕구,석봉동,36.44728,127.426213,Y
725,타슈2,신탄진역,대덕구,신탄진동,36.449455,127.428748,N
726,타슈2,신탄진역(127),대덕구,신탄진동,36.448314,127.429185,Y
727,타슈2,신탄진동 행정복지센터(126),대덕구,신탄진동,36.451693,127.428899,Y
728,타슈2,대전보훈병원 재활체육센터 정류장,대덕구,신탄진동,36.448376,127.438944,Y
729,타슈2,금강로하스엘크루아파트 104동,대덕구,석봉동,36.452986,127.423797,Y
730,타슈2,신탄진복합문화커뮤니티센터,대덕구,석봉동,36.450359,127.423517,Y
731,타슈2,용문동 도산서원(남선공원네거리 방면) 정류장,서구,용문동,36.343026,127.3996,Y
732,타슈2,탄방동 하마모터스,서구,탄방동,36.343215,127.391343,Y
733,타슈2,둔산전자타운(용문역6번출구) 정류장,서구,탄방동,36.339592,127.394666,Y
734,타슈2,LG유플러스 대전오류사옥 정류장,중구,오류동,36.330034,127.402932,Y
735,타슈2,롯데백화점 뒤 우정어린이공원,서구,용문동,36.339969,127.388785,Y
736,타슈2,KT인재개발원(갈마동 방면) 정류장,서구,괴정동,36.338834,127.375721,Y
737,타슈2,롯데백화점,서구,괴정동,36.341172,127.389432,Y
738,타슈2,갈마동 서부농협하나로마트,서구,갈마동,36.354004,127.367723,Y
739,타슈2,초록마을1단지예미지아파트 101동,서구,복수동,36.303792,127.379024,Y
740,타슈2,초록마을5단지중흥S클래스아파트 정류장,서구,복수동,36.298323,127.3767,Y
741,타슈2,유성여고 입구,유성구,죽동,36.380735,127.327042,Y
742,타슈2,송강초등학교(163) 2,유성구,송강동,36.433048,127.384026,N
743,타슈2,송강동네거리 송강마을아파트 방면,유성구,송강동,36.434118,127.388543,Y
744,타슈2,봉산휴먼시아2단지아파트 입구 건너편,유성구,봉산동,36.438054,127.386075,Y
745,타슈2,봉산LH3단지아파트 입구,유성구,봉산동,36.438676,127.386837,Y
746,타슈2,봉산동 하늘바람휴먼시아아파트 111동 입구,유성구,봉산동,36.438095,127.382002,Y
747,타슈2,송강프라자 대각선 건너편,유성구,봉산동,36.43585,127.387021,Y
748,타슈2,복수남로 사정교 방면 네거리,서구,복수동,36.298085,127.378904,Y
749,타슈2,제일프라자,중구,중촌동,36.33772,127.409341,Y
750,타슈2,반석마을5단지아파트 503동 정류장,유성구,반석동,36.390918,127.311813,Y
751,타슈2,노은3지구 꿈에그린 201동(230),유성구,지족동,36.388164,127.303215,Y
752,타슈2,반석더샵 입구 건너편,유성구,반석동,36.390032,127.304973,Y
753,타슈2,반석마을1단지호반리젠시빌 102동,유성구,지족동,36.387894,127.310805,Y
754,타슈2,송림네거리(한국침례신학대학교 방면),유성구,하기동,36.387409,127.322346,Y
755,타슈2,송림마을3단지이노스빌아파트 304동,유성구,하기동,36.390068,127.323367,Y
756,타슈2,송림마을5단지 509동,유성구,하기동,36.388941,127.329853,Y
757,타슈2,하기동 윗텃골어린이공원,유성구,하기동,36.388975,127.331087,Y
758,타슈2,대전송림초등학교,유성구,하기동,36.38807,127.331651,Y
759,타슈2,신성동 KT&G중앙연구원,유성구,신성동,36.384139,127.34714,Y
760,타슈2,한국화학연구원 입구,유성구,장동,36.385444,127.358803,Y
761,타슈2,LG생활건강 기술연구원 입구,유성구,장동,36.38486,127.362126,Y
762,타슈2,어은동 한빛아파트 131동,유성구,어은동,36.362383,127.353227,N
763,타슈2,어은동 한빛아파트 126동,유성구,궁동,36.363151,127.352945,Y
764,타슈2,어은치안센터 입구,유성구,어은동,36.360821,127.354303,Y
765,타슈2,충대(온천교 방면),유성구,궁동,36.360638,127.34379,Y
766,타슈2,봉명동 스카이뷰로드오피스텔 건너편,유성구,봉명동,36.357527,127.343184,Y
767,타슈2,유성온천역 5번출구,유성구,봉명동,36.35401,127.341305,Y
768,타슈2,유성온천역 7번출구,유성구,봉명동,36.353959,127.341847,Y
769,타슈2,유성온천역 8번출구,유성구,봉명동,36.353713,127.342027,Y
770,타슈2,유성온천역 2번출구,유성구,봉명동,36.352878,127.341558,Y
771,타슈2,유성온천역 4번출구,유성구,봉명동,36.353637,127.341173,Y
772,타슈2,진터네거리(도안4블럭 방면),유성구,상대동,36.348213,127.339896,Y
773,타슈2,휴먼시아4단지(트리풀시티9단지 방면) 정류장,유성구,상대동,36.346906,127.339981,Y
774,타슈2,목원대(동서대로) 네거리,서구,도안동,36.331895,127.338308,Y
775,타슈2,도안동 하나은행,서구,도안동,36.331951,127.34003,Y
776,타슈2,도안동 어울림하트아파트 1209동,서구,도안동,36.334378,127.340329,Y
777,타슈2,도안휴먼시아10단지아파트 상가동,유성구,원신흥동,36.338962,127.341983,Y
778,타슈2,도안휴먼시아10단지아파트 1001동,유성구,원신흥동,36.33838,127.340334,Y
779,타슈2,도안아이파크(대전에너지사업단 방면) 정류장,서구,도안동,36.324228,127.345374,Y
780,타슈2,대전도안아이파크아파트 1505동,서구,도안동,36.323425,127.347489,Y
781,타슈2,도안초등학교(도안수목토아파트 114동)(202),서구,도안동,36.320591,127.344082,Y
782,타슈2,도안수목토아파트 114동 건너편,서구,도안동,36.320933,127.343572,Y
783,타슈2,도안숲소공원,서구,도안동,36.319178,127.342418,Y
784,타슈2,도안 계룡리슈빌 1703동 건너편,서구,도안동,36.315809,127.345318,Y
785,타슈2,도안 계룡리슈빌 1704동,서구,도안동,36.316899,127.345549,Y
786,타슈2,도안 호반베르디움 101동(146),서구,도안동,36.311851,127.346831,Y
787,타슈2,도안동 나비어린이공원,서구,도안동,36.315173,127.350166,Y
788,타슈2,도안린풀하우스18단지아파트 1806동,서구,도안동,36.312225,127.349946,Y
789,타슈2,도안동 윗용소어린이공원 입구,서구,가수원동,36.308151,127.349886,Y
790,타슈2,가수원파출소(린풀하우스 방면) 정류장(34870),서구,가수원동,36.307064,127.352735,Y
791,타슈2,가수원동 용소수변공원,서구,가수원동,36.311639,127.352326,Y
792,타슈2,가수원동 미나리어린이공원 뒤편,서구,가수원동,36.308561,127.354568,N
793,타슈2,가수원동 은아아파트 302동,서구,가수원동,36.304175,127.350162,Y
794,타슈2,가수원동 771-2,서구,가수원동,36.301959,127.354341,Y
795,타슈2,가수원동 480-1,서구,가수원동,36.304026,127.353863,Y
796,타슈2,가수원연립주택 정류장,서구,가수원동,36.303592,127.347181,Y
797,타슈2,용소1교 좌안,서구,도안동,36.3062,127.348531,Y
798,타슈2,느리울마을12단지주공아파트 서측 입구,서구,관저동,36.298059,127.340837,Y
799,타슈2,느리울12단지(느리울13단지 방면) 정류장(33580) 뒤편,서구,관저동,36.298596,127.340368,Y
800,타슈2,느리울마을13단지주공아파트 1304동,서구,관저동,36.29731,127.343899,Y
801,타슈2,관저어반힐스아파트 501동,서구,관저동,36.295775,127.343984,Y
802,타슈2,관저LH천년나무1단지아파트 정문 입구,서구,관저동,36.293739,127.343608,Y
803,타슈2,관저어반힐스아파트 503동,서구,관저동,36.293896,127.343269,Y
804,타슈2,다온숲3단지아파트 312동 건너편,서구,관저동,36.293727,127.340468,Y
805,타슈2,관저예미지명가의풍경아파트 112동 건너편,서구,관저동,36.295223,127.335077,Y
806,타슈2,관저중흥S클래스프라디움아파트(선유초 방면),서구,관저동,36.294986,127.33775,Y
807,타슈2,선암초교네거리 정류장(느리울13단지 방면),서구,관저동,36.296109,127.336204,Y
808,타슈2,느리울13단지 정류장(느리울12단지 방면),서구,관저동,36.296247,127.339504,Y
809,타슈2,건양대병원네거리 느리울마을11단지 110동 건너편,서구,관저동,36.300119,127.340247,Y
810,타슈2,대전 관저2동우체국,서구,관저동,36.298912,127.328778,Y
811,타슈2,진잠네거리 구봉마을 7단지 방면,서구,관저동,36.298427,127.32464,Y
812,타슈2,진잠네거리 관저더샵아파트 방면,서구,관저동,36.298122,127.324051,Y
813,타슈2,대정교 정류장(모다아울렛),유성구,대정동,36.311983,127.31829,Y
814,타슈2,진잠향교 입구,유성구,교촌동,36.302868,127.315696,Y
815,타슈2,진잠향교 입구 건너편,유성구,원내동,36.30296,127.316131,Y
816,타슈2,원내동 한아름아파트 상가동,유성구,원내동,36.296059,127.320214,Y
817,타슈2,건양대학교병원(216),서구,관저동,36.306045,127.340833,Y
818,타슈2,원앙네거리 구봉신협 원앙지점,서구,관저동,36.308082,127.336445,Y
819,타슈2,관저동 원앙4단지아파트 406동,서구,관저동,36.303253,127.340515,Y
820,타슈2,정림동 우성1차아파트 101동,서구,정림동,36.30569,127.362715,Y
821,타슈2,정림동 늘푸른아파트 102동,서구,정림동,36.301889,127.366203,Y
822,타슈2,정림동 삼정하이츠아파트 105동,서구,정림동,36.297456,127.362231,Y
823,타슈2,정림동 무궁화공원,서구,정림동,36.302039,127.363585,Y
824,타슈2,정림동 삼성자동차운전전문학원 건너편,서구,정림동,36.302313,127.369511,Y
825,타슈2,오정농수산물 도매시장(260),대덕구,오정동,36.357748,127.407751,Y
826,타슈2,오정농수산물시장(동대전농협),대덕구,오정동,36.358285,127.409626,Y
827,타슈2,오정동 통매바위어린이공원,대덕구,오정동,36.354092,127.413244,Y
828,타슈2,오정동 노촌어린이공원,대덕구,오정동,36.352445,127.408543,Y
829,타슈2,오정로 호남선(가도교) 아래 ,대덕구,오정동,36.350773,127.4124,Y
830,타슈2,오정로 호남선(가도교) 아래 2,대덕구,오정동,36.351021,127.412741,Y
831,타슈2,한남오거리(대덕구청 방면),대덕구,오정동,36.347933,127.415619,Y
832,타슈2,오정우체국 건너편(184),대덕구,오정동,36.352689,127.41554,Y
833,타슈2,오정네거리(한남대 방면),대덕구,오정동,36.358422,127.415779,Y
834,타슈2,오정동 성진주택 ,대덕구,오정동,36.354754,127.416023,Y
835,타슈2,중리지구대 건너편 정류장,대덕구,중리동,36.359043,127.420525,Y
836,타슈2,중리동 미래어린이공원,대덕구,중리동,36.364024,127.423344,Y
837,타슈2,중리동 반도정형외과 중리네거리 방면 정류장,대덕구,중리동,36.362967,127.430925,Y
838,타슈2,중리동 장안외과의원,대덕구,중리동,36.361563,127.431328,Y
839,타슈2,중리동 반도정형외과,대덕구,중리동,36.364109,127.43062,Y
840,타슈2,중리중학교 입구 정류장,대덕구,중리동,36.366696,127.429898,Y
841,타슈2,중리동(하나로병원)(78),대덕구,중리동,36.36327,127.431282,Y
842,타슈2,계족로(송애당 입구) 방면,대덕구,중리동,36.364568,127.431422,Y
843,타슈2,법동 그린타운아파트 112동 건너편,대덕구,중리동,36.365179,127.434744,Y
844,타슈2,송촌컨벤션센터 건너편,대덕구,송촌동,36.365833,127.43692,Y
845,타슈2,법동 한마음아파트 상가동,대덕구,법동,36.370752,127.431236,Y
846,타슈2,법동 한마음아파트 106동 건너편,대덕구,법동,36.370096,127.432297,Y
847,타슈2,선비마을5단지아파트 502동 정류장,대덕구,송촌동,36.365988,127.444771,Y
848,타슈2,송촌동성당 건너편 정류장,대덕구,송촌동,36.362001,127.445213,Y
849,타슈2,송촌동 진가쟁이어린이공원,대덕구,송촌동,36.362892,127.445628,Y
850,타슈2,법동 대덕경찰서(72),대덕구,법동,36.369958,127.429496,Y
851,타슈2,중리동 럭키스포츠프라자,대덕구,중리동,36.366148,127.42294,Y
852,타슈2,대전지방국세청 남측(법동네거리 방면),대덕구,법동,36.37112,127.428477,Y
853,타슈2,법동 근로복지공단 대전병원,대덕구,법동,36.369375,127.429173,N
854,타슈2,법동 삼호아파트 2동,대덕구,법동,36.373436,127.426164,N
855,타슈2,법동 선비마을1단지아파트 104동,대덕구,법동,36.373045,127.428526,N
856,타슈2,회덕유래비 건너편 정류장,대덕구,읍내동,36.376853,127.420782,Y
857,타슈2,회덕유래비 정류장,대덕구,읍내동,36.376694,127.421145,Y
858,타슈2,읍내동 대전동원약품 정류장,대덕구,읍내동,36.374788,127.418588,N
859,타슈2,회덕농협 건너편(208),대덕구,읍내동,36.379001,127.42688,Y
860,타슈2,읍내동 보도육교 아래(법동 방면),대덕구,읍내동,36.377268,127.426915,Y
861,타슈2,연축주공아파트 104동,대덕구,신대동,36.396576,127.422896,Y
862,타슈2,와동 회덕우체국 입구,대덕구,와동,36.402848,127.422835,Y
863,타슈2,덕암동행정복지센터,대덕구,덕암동,36.44008,127.42703,Y
864,타슈2,상서동 쌍용자동차 대전서비스센터 정류장,대덕구,상서동,36.427679,127.422701,Y
865,타슈2,도마동 효성타운아파트 입구 정류장,서구,도마동,36.311724,127.38299,Y
866,타슈2,비래동 SJ산림조합중앙회 건너편 정류장,대덕구,송촌동,36.356406,127.44476,Y
867,타슈2,상서삼거리(와동 방면) 정류장,대덕구,상서동,36.430125,127.421634,Y
868,타슈2,연축동 그린빌라,대덕구,연축동,36.396413,127.426375,Y
869,타슈2,유천동현대아파트(도마동 방면) 정류장,중구,유천동,36.318973,127.39896,Y
870,타슈2,가장동 큰손부추해물칼국수,서구,가장동,36.328047,127.386538,Y
871,타슈2,변동 필통수입차부품 정류장,서구,변동,36.327968,127.385542,Y
872,타슈2,태평동 하나동물병원,중구,태평동,36.32615,127.393077,Y
873,타슈2,유천동 태평새마을금고,중구,유천동,36.322466,127.397864,Y
874,타슈2,유천동 새서울종합시장,중구,유천동,36.321899,127.396347,Y
875,타슈2,태평동 버드내1단지아파트 입구,중구,태평동,36.316311,127.388576,Y
876,타슈2,변동 포도힐6차아파트 입구,서구,변동,36.323143,127.378065,Y
877,타슈2,농도원네거리(197),서구,도마동,36.320287,127.377601,Y
878,타슈2,변동 동일세탁,서구,변동,36.324702,127.381218,Y
879,타슈2,도마동 기찬가정의학과의원,서구,도마동,36.315288,127.379285,Y
880,타슈2,도마동 대일의류도매백화점,서구,도마동,36.314305,127.382374,Y
881,타슈2,도마동 오매불떡 정류장,서구,도마동,36.311349,127.376621,Y
882,타슈2,도마네거리 리더스내과,서구,도마동,36.312797,127.380374,Y
883,타슈2,도마동 띠울석갈비 정류장,서구,도마동,36.310334,127.372706,Y
884,타슈2,전민동 한국한의학연구원 건너편,유성구,전민동,36.400008,127.394138,Y
885,타슈2,문지동 GS칼텍스 기술연구소,유성구,문지동,36.38916,127.404796,Y
886,타슈2,장대동 드림월드아파트 102동(유성대로 방향),유성구,장대동,36.362339,127.336965,Y
887,타슈2,장대동 월드컵패밀리타운아파트 106동(유성대로 방향),유성구,장대동,36.363941,127.337671,Y
888,타슈2,장대동 어울림주간보호센터,유성구,장대동,36.361372,127.335949,Y
889,타슈2,장대네거리 (죽동네거리 방면) 정류장,유성구,장대동,36.365405,127.335809,Y
890,타슈2,죽동 군량들어린이공원 입구,유성구,죽동,36.369687,127.334562,Y
891,타슈2,죽동천년나무아파트 505동,유성구,죽동,36.371253,127.335218,Y
892,타슈2,죽동 파스쿠찌,유성구,죽동,36.368872,127.339351,Y
893,타슈2,노은동 열매마을 11단지리슈빌아파트 1109동,유성구,노은동,36.364508,127.31358,Y
894,타슈2,노은동 더노은로 캠핑장,유성구,노은동,36.36344,127.315829,Y
895,타슈2,노은 농수산물도매시장 트럭판매B동 건너편 정류장,유성구,노은동,36.364207,127.317543,Y
896,타슈2,월드컵경기장역 2번출구,유성구,노은동,36.366538,127.317477,Y
897,타슈2,노은서로 94 ,유성구,노은동,36.36852,127.313927,Y
898,타슈2,노은동 노은카운티스 103동,유성구,노은동,36.370716,127.315502,Y
899,타슈2,노은동 CGV,유성구,지족동,36.372423,127.318116,Y
900,타슈2,노은동 열매마을 8단지 입구,유성구,노은동,36.372054,127.319636,Y
901,타슈2,노은동 열매마을 7단지 현대아파트 입구,유성구,지족동,36.372287,127.321406,Y
902,타슈2,노은동 열매마을 9단지 금성백조아파트 입구,유성구,노은동,36.372076,127.321571,Y
903,타슈2,노은동 열매마을 9단지 금성백조아파트 910동,유성구,노은동,36.37118,127.323285,Y
904,타슈2,노은동 열매마을 7단지 현대아파트 708동,유성구,지족동,36.373125,127.322829,Y
905,타슈2,노은동 열매마을 4단지 현대아파트 입구,유성구,지족동,36.376101,127.316167,Y
906,타슈2,지족동 경신빌딩,유성구,지족동,36.375826,127.31618,Y
907,타슈2,지족동 열매마을 5단지 입구,유성구,지족동,36.376106,127.318892,Y
908,타슈2,지족동 열매마을 6단지 현대아파트 입구,유성구,지족동,36.376108,127.321417,Y
909,타슈2,지족동 열매2단지한라아파트 202동,유성구,지족동,36.37998,127.318261,Y
910,타슈2,지족동 열매2단지한라아파트 201동,유성구,지족동,36.380472,127.319311,Y
911,타슈2,유성경찰서 민원실앞,유성구,죽동,36.37857,127.3258,Y
912,타슈2,송강청솔아파트 상가동,유성구,송강동,36.436395,127.383657,Y
913,타슈2,한솔제지 입구,대덕구,신일동,36.431715,127.407364,Y
914,타슈2,트루윈 입구,대덕구,신일동,36.436712,127.405937,Y
915,타슈2,오정동 경신창호,대덕구,오정동,36.353788,127.405544,N
916,타슈2,대덕구청,대덕구,오정동,36.346339,127.41634,Y
917,타슈2,오정동 한밭삼계탕,대덕구,오정동,36.345185,127.416525,Y
918,타슈2,삼성동 민정빌라,동구,삼성동,36.344413,127.416776,Y
919,타슈2,삼성동 이플러스빌딩 건너편,동구,삼성동,36.342876,127.418565,N
920,타슈2,도룡동 LG화학사원아파트,유성구,도룡동,36.386808,127.377847,Y
921,타슈2,도룡동 몰리에르,유성구,도룡동,36.388689,127.375711,N
922,타슈2,산성동 주원교회 건너편,중구,사정동,36.295903,127.386592,Y
923,타슈2,목양마을아파트 117동 정류장,중구,목동,36.335659,127.403532,Y
924,타슈2,가양동 리첸하우스 2,동구,가양동,36.341285,127.447332,N
925,타슈2,대전테크노파크용산동 에스피에스(257),유성구,용산동,36.420966,127.405413,Y
926,타슈2,용산동 충남대 산학협력지원센터,유성구,용산동,36.425773,127.401715,Y
927,타슈2,관평동 한밭대 대덕산학융합캠퍼스,유성구,관평동,36.428228,127.395161,Y
928,타슈2,용산동 경남아너스빌1단지 101동,유성구,용산동,36.420748,127.398614,Y
929,타슈2,테크노밸리푸르지오1단지 101동,유성구,용산동,36.418407,127.396803,Y
930,타슈2,용산동 경남아너스빌1단지 209동,유성구,용산동,36.41829,127.397962,Y
931,타슈2,테크노밸리12단지필유 1209동,유성구,용산동,36.41762,127.395081,Y
932,타슈2,테크노밸리푸르지오1단지 201동,유성구,용산동,36.41753,127.39545,N
933,타슈2,남대전 이편한세상 입구 정류장,동구,낭월동,36.280439,127.468131,Y
934,타슈2,이스트시티 102동,동구,대동,36.327454,127.440227,Y
935,타슈2,대전낭월동우체국,동구,낭월동,36.281293,127.467431,Y
936,타슈2,낭월동 오투그란데아파트 107동,동구,낭월동,36.285641,127.465161,Y
937,타슈2,송강 한마을아파트 107동,유성구,송강동,36.430575,127.38344,Y
938,타슈2,송강그린아파트 318동,유성구,송강동,36.430354,127.383071,Y
939,타슈2,송강한마을아파트 114동,유성구,송강동,36.429031,127.384643,Y
940,타슈2,송강동 계룡한솔아파트 201동,유성구,송강동,36.432319,127.386334,Y
941,타슈2,송강초등학교(163),유성구,송강동,36.433056,127.384058,Y
942,타슈2,봉산휴먼시아 102동,유성구,봉산동,36.438063,127.383602,Y
943,타슈2,봉산휴먼시아상가 정류장,유성구,봉산동,36.438033,127.384814,Y
944,타슈2,구즉동행정복지센터,유성구,봉산동,36.440271,127.383817,Y
945,타슈2,구즉동행정복지센터 입구 정류장,유성구,봉산동,36.441154,127.385611,Y
946,타슈2,송강마을2단지아파트 상가입구,유성구,송강동,36.437116,127.386015,Y
947,타슈2,한국장애인고용공단 대전직업능력개발원,대덕구,신일동,36.439435,127.410536,Y
948,타슈2,문평동 롯데칠성음료 대전공장,대덕구,문평동,36.445595,127.395696,Y
949,타슈2,문평동 옥봉 신탄진물류센터,대덕구,문평동,36.448073,127.4006,Y
950,타슈2,목상동 한일제관 대전공장 입구 건너편,대덕구,목상동,36.445717,127.410161,Y
951,타슈2,신일동 한라아파트 102동,대덕구,신일동,36.44465,127.410243,Y
952,타슈2,목상동 다사랑아파트 104동,대덕구,목상동,36.447099,127.414697,Y
953,타슈2,석봉동 이노센스뷰아파트,대덕구,석봉동,36.447444,127.424726,Y
954,타슈2,신탄진고네거리(129),대덕구,신탄진동,36.448768,127.435747,Y
955,타슈2,신탄진신협 본점,대덕구,덕암동,36.442508,127.424894,N
956,타슈2,행복한마을신일유토빌 102동,대덕구,평촌동,36.438497,127.423392,Y
957,타슈2,신탄진농협 본점,대덕구,덕암동,36.436965,127.422654,Y
958,타슈2,신흥SK뷰 106동,동구,신흥동,36.325984,127.441693,Y
959,타슈2,선화동 라온힐,중구,선화동,36.328919,127.418494,Y
960,타슈2,선화동 대전측기사,중구,선화동,36.325599,127.420049,Y
961,타슈2,선화동 충청남도 대전학사관,중구,선화동,36.326144,127.419176,Y
962,타슈2,선화동 중구국민체육센터,중구,선화동,36.329866,127.417142,Y
963,타슈2,송촌동 선비마을2단지 202동,대덕구,송촌동,36.369146,127.440214,Y
964,타슈2,송촌동 아이프라자,대덕구,송촌동,36.367456,127.437376,Y
965,타슈2,송촌동 선비마을3단지 303동,대덕구,송촌동,36.367138,127.441635,Y
966,타슈2,송촌동 선비마을4단지 403동,대덕구,송촌동,36.367487,127.442352,Y
967,타슈2,송촌동 선비마을3단지 316동,대덕구,송촌동,36.369394,127.440838,Y
968,타슈2,송촌동 선비마을4단지 414동,대덕구,송촌동,36.366018,127.444377,Y
969,타슈2,송촌동 선비마을5단지 상가,대덕구,송촌동,36.364161,127.446098,Y
970,타슈2,송촌고등학교,대덕구,송촌동,36.362509,127.446553,Y
971,타슈2,비래동 유앤미아파트,대덕구,비래동,36.360221,127.450114,Y
972,타슈2,비래동 금성백조 102동(235),대덕구,비래동,36.3582,127.4505,Y
973,타슈2,비래동 금성백조아파트 101동 남측,대덕구,비래동,36.357991,127.451736,Y
974,타슈2,비래동 금성백조아파트 101동 북측,대덕구,비래동,36.358738,127.451886,Y
975,타슈2,비래동 청송빌딩,대덕구,비래동,36.359322,127.448372,Y
976,타슈2,송촌서오아파트 104동,대덕구,송촌동,36.359496,127.445773,Y
977,타슈2,비래동 특벼리각벼리,대덕구,비래동,36.354303,127.450566,N
978,타슈2,가양동 청하목욕탕,동구,가양동,36.354278,127.452952,Y
979,타슈2,가양동 혜성빌,동구,가양동,36.350051,127.451832,Y
980,타슈2,가양동 두원빌라A동,동구,가양동,36.349513,127.449036,Y
981,타슈2,가양동 흥룡연립,동구,가양동,36.347812,127.446057,Y
982,타슈2,송촌동 대전충남적십자혈액원,대덕구,송촌동,36.354194,127.441702,Y
983,타슈2,비래동 백마강참숯민물장어,대덕구,비래동,36.352242,127.443058,Y
984,타슈2,싸이언스빌3가 대덕벤처협동화단지,유성구,문지동,36.386693,127.404908,Y
985,타슈2,문지동 케이엘이에스 정류장,유성구,문지동,36.391068,127.40509,Y
986,타슈2,가양동 녹십자약국,동구,가양동,36.346302,127.445393,Y
987,타슈2,가양동 다솜요양병원(207),동구,가양동,36.343639,127.442344,Y
988,타슈2,현충원 인근 갑동숯불민물장어,유성구,갑동,36.361432,127.289221,Y
989,타슈2,덕명동 덕송초등학교,유성구,덕명동,36.360558,127.303068,Y
990,타슈2,갑동 온조식당 입구,유성구,갑동,36.360361,127.295956,Y
991,타슈2,자운대 간부3동 아파트 정류장,유성구,신봉동,36.408638,127.337097,Y
992,타슈2,자운대 78 군사우체국 정류장,유성구,신봉동,36.410926,127.337113,Y
993,타슈2,자운대 군인아파트 812동,유성구,추목동,36.414557,127.344162,Y
994,타슈2,자운대 자운상가앞 정류장,유성구,신봉동,36.413921,127.337159,Y
995,타슈2,용운동한화꿈에그린아파트 입구,동구,용운동,36.332698,127.457169,Y
996,타슈2,은어송마을2단지 입구(102),동구,대성동,36.30349,127.457388,Y
997,타슈2,은어송마을1단지 108동,동구,가오동,36.303742,127.457495,Y
998,타슈2,은어송마을1단지 102동,동구,가오동,36.30588,127.457677,Y
999,타슈2,은어송마을3단지 311동,동구,가오동,36.312054,127.459413,Y
1000,타슈2,옥계동 솔빛아파트,중구,옥계동,36.299145,127.454534,Y
1001,타슈2,옥계동 울엄마양평해장국,중구,옥계동,36.300018,127.453359,Y
1002,타슈2,호동 그린세탁소,중구,호동,36.302862,127.448513,Y
1003,타슈2,호동 장보고가게,중구,호동,36.30186,127.447833,Y
1004,타슈2,호동 쉐보레 대전중부전시장,중구,호동,36.303516,127.450743,Y
1005,타슈2,옥계동 다조은 노인복지센터,중구,옥계동,36.301953,127.453619,Y
1006,타슈2,옥계동 하남아파트 A동,중구,옥계동,36.300593,127.454851,Y
1007,타슈2,옥계동 신도빌아파트,중구,옥계동,36.298491,127.45608,Y
1008,타슈2,천동아파트 12동 정류장,동구,가오동,36.308115,127.449764,Y
1009,타슈2,가오동 신흥교회,동구,가오동,36.306,127.451932,Y
1010,타슈2,천동홍익아파트 101동,동구,천동,36.311173,127.447078,Y
1011,타슈2,효동 대전국악방송 건너편,동구,효동,36.313705,127.44112,Y
1012,타슈2,베스트코 신탄진점 건너편,대덕구,덕암동,36.434134,127.421709,Y
1013,타슈2,법동 영진로얄아파트 입구,대덕구,법동,36.37412,127.426557,Y
1014,타슈2,충대 학생생활관,유성구,궁동,36.372306,127.346404,Y
1015,타슈2,충대 중앙도서관,유성구,궁동,36.369513,127.346736,Y
1016,타슈2,충대 학생회관,유성구,궁동,36.366431,127.345595,Y
1017,타슈2,충대 서문네거리,유성구,죽동,36.37041,127.339933,Y
1018,타슈2,궁동네거리1(학사마을),유성구,장대동,36.364937,127.338671,Y
1019,타슈2,궁동네거리2(하이마트),유성구,장대동,36.363979,127.338297,Y
1020,타슈2,충대정문오거리1(정문),유성구,궁동,36.362447,127.344123,Y
1021,타슈2,궁동버스정류장(유성구청방향),유성구,궁동,36.360527,127.349743,Y
1022,타슈2,스카이뷰로드 오피스텔(봉명동),유성구,봉명동,36.357716,127.342709,N
1023,타슈2,매드블럭(봉명동),유성구,봉명동,36.358699,127.343662,Y
1024,타슈2,만년동 행정복지센터,서구,만년동,36.367645,127.375195,Y
1025,타슈2,초원아파트 107동 버스정류장,서구,만년동,36.367683,127.379283,Y
1026,타슈2,한밭수목원(서원),서구,만년동,36.369195,127.387595,Y
1027,타슈2,한밭수목원(동원),서구,만년동,36.369245,127.388462,Y
1028,타슈2,둔산대공원 입구(버스정류장),서구,만년동,36.365018,127.389358,Y
1029,타슈2,누리아파트(후문 버스정류장),서구,월평동,36.359288,127.374225,Y
1030,타슈2,백합아파트(성룡초교),서구,월평동,36.361423,127.374492,Y
1031,타슈2,정부청사 입구(대덕대로),서구,둔산동,36.361912,127.379653,Y
1032,타슈2,정부청사역 4번출구,서구,둔산동,36.357979,127.382026,Y
1033,타슈2,정부청사 입구(남문),서구,둔산동,36.359685,127.385324,Y
1034,타슈2,정부청사 입구(샘머리),서구,둔산동,36.361215,127.390075,Y
1035,타슈2,수정타운아파트(13동),서구,둔산동,36.357862,127.397895,N
1036,타슈2,갑천역 1번출구,서구,월평동,36.354519,127.354737,Y
1037,타슈2,진달래아파트 107동,서구,월평동,36.358217,127.366151,Y
1038,타슈2,둔산여고,서구,둔산동,36.352995,127.374385,Y
1039,타슈2,타임월드,서구,둔산동,36.352923,127.379151,Y
1040,타슈2,크로바아파트(정문 맞은편),서구,둔산동,36.351177,127.391784,Y
1041,타슈2,둔산청솔아파트 9동,서구,둔산동,36.351335,127.398595,Y
1042,타슈2,관저더샵2차아파트 202동,서구,관저동,36.293938,127.326051,Y
1043,타슈2,중촌역푸르지오아파트 정문,중구,중촌동,36.345574,127.410817,Y
1044,타슈2,중촌역푸르지오아파트 102동,중구,중촌동,36.346737,127.40938,Y
1045,타슈2,중촌동 대전시아동보호전문기관,중구,중촌동,36.342852,127.409797,Y
1046,타슈2,북대전농협 관평지점,유성구,관평동,36.423887,127.388695,Y
1047,타슈2,신동아파밀리에 509동 정류장,유성구,관평동,36.419803,127.386058,Y
1048,타슈2,유성경찰서 민원실,유성구,복용동,36.337864,127.328228,N
1049,타슈2,진달래아파트(미사용),서구,월평동,36.358935,127.366802,N
1050,타슈2,아이파크시티 205동 상가,유성구,상대동,36.335927,127.333196,Y
1051,타슈2,월평역 이마트트레이더스(33),서구,월평동,36.358472,127.361088,Y
1052,타슈2,충대입구버스정류장(홈플러스유성점방면),유성구,궁동,36.361238,127.346071,Y
1053,타슈2,용전네거리 하나은행(121),동구,홍도동,36.347295,127.431472,Y
1054,타슈2,복수동 서부경찰서(240),서구,복수동,36.30844,127.373555,Y
1055,타슈2,한밭도서관(195),중구,문화동,36.310228,127.408306,Y
1056,타슈2,백합네거리(06),서구,월평동,36.362352,127.376361,Y
1057,타슈2,배울네거리 관평동(165),유성구,관평동,36.422155,127.387548,Y
1058,타슈2,카이스트 학사식당(21),유성구,어은동,36.373495,127.359509,Y
1059,타슈2,법원버스정류장(15),서구,둔산동,36.355442,127.390021,Y
1060,타슈2,유승기업사(52),서구,탄방동,36.343389,127.381157,Y
1061,타슈2,도안휴먼시아1단지(62),유성구,봉명동,36.350242,127.340653,Y
1062,타슈2,내동네거리(238),서구,변동,36.330812,127.377007,Y
1063,타슈2,"대덕문화원,회덕초,회덕동,읍내동,대화동(196",대덕구,읍내동,36.374219,127.420393,Y
1064,타슈2,죽동 금성백조 예미지(203),유성구,죽동,36.36875,127.336951,Y
1065,타슈2,상대초등학교(63),유성구,상대동,36.348294,127.335822,Y
1066,타슈2,국립중앙과학관(104),유성구,가정동,36.37522,127.378129,Y
1067,타슈2,중앙로역 3번출구(143),중구,대흥동,36.327822,127.426215,Y
1068,타슈2,우송대 정문 건너편(151),동구,자양동,36.336899,127.44775,Y
1069,타슈2,한밭대 입구(182),유성구,덕명동,36.350426,127.297526,Y
1070,타슈2,도안 트리풀시티5단지(509동)(149),유성구,상대동,36.345442,127.338867,Y
1071,타슈2,도안 2단지 호반베르디움 214동,유성구,봉명동,36.351484,127.344819,Y
1072,타슈2,성남네거리(168),동구,성남동,36.340978,127.435583,Y
1073,타슈2,대흥네거리(171),중구,대흥동,36.3236,127.42867,Y
1074,타슈2,에코공원(131),대덕구,신탄진동,36.448866,127.444635,Y
1075,타슈2,용문역 5번출구,서구,탄방동,36.338619,127.393125,Y
1076,타슈2,중촌동 행정복지센터 정류장,중구,중촌동,36.338785,127.413075,Y
1077,타슈2,오룡역 7번출구,중구,용두동,36.32878,127.406049,Y
1078,타슈2,지족역 2번출구맞은편(200),유성구,지족동,36.383703,127.320217,Y
1079,타슈2,남선공원종합체육관(51),서구,탄방동,36.348681,127.398655,Y
1080,타슈2,대전근로자종합복지회관,서구,둔산동,36.354377,127.382757,Y
1081,타슈2,한남대학교대덕밸리캠퍼스,유성구,전민동,36.400108,127.392244,Y
1082,타슈2,정부청사입구(샘머리)(8),서구,전민동,36.361757,127.390477,Y
1083,타슈2,읍내동 우편취급국(210),대덕구,읍내동,36.378602,127.421322,Y
1084,타슈2,유성온천역 3번출구,유성구,봉명동,36.352996,127.340988,Y
1085,타슈2,유성온천역 6번출구,유성구,봉명동,36.354255,127.341439,Y
1086,타슈2,자양동 우송삼거리(커피니),동구,자양동,36.336116,127.447265,Y
1087,타슈2,도안 신안인스빌리베라(68),유성구,원신흥동,36.341916,127.344968,Y
1088,타슈2,한남오거리 새마을금고(154),대덕구,오정동,36.348024,127.416453,Y
1089,타슈2,원동네거리 국민은행(167),동구,원동,36.327038,127.434776,N
1090,타슈2,사정동 웰빙24시사우나(241),중구,사정동,36.296424,127.384725,Y
1091,타슈2,대전근로복지공단대전병원(정문),대덕구,법동,36.368093,127.42945,Y
1092,타슈2,괴정동 경성스포츠,서구,괴정동,36.336619,127.378365,Y
1093,타슈2,우송대 정문,동구,자양동,36.337848,127.447995,Y
1094,타슈2,오정동 운암빌딩옆(155),대덕구,오정동,36.358492,127.411251,Y
1095,타슈2,시설관리공단(정문),유성구,원촌동,36.385323,127.405447,Y
1096,타슈2,시설관리공단(원촌삼거리),유성구,원촌동,36.381755,127.406607,N
1097,타슈2,타슈관제센터(144),유성구,문지동,36.389328,127.409773,N
1098,타슈2,교촌동제이파크 101동(190),유성구,교촌동,36.303761,127.318473,N
1099,타슈2,유천동 서대전육교(93),중구,유천동,36.319201,127.399932,N
1100,타슈2,대동 이앤엠학원,동구,대동,36.331488,127.444099,Y
1101,타슈2,아침마을아파트 111동(가양초등학교),동구,가양동,36.34254,127.43938,Y
1102,타슈2,우송대건너편,동구,자양동,36.339651,127.449006,Y
1103,타슈2,"우송대,솔펫동물병원,우송애견센터",동구,자양동,36.334552,127.445966,Y
1104,타슈2,"대전 시민대학(선화동,보호관찰소)",중구,선화동,36.328187,127.420701,Y
1105,타슈2,둔산 이마트,서구,둔산동,36.35643,127.379168,N
1106,타슈2,대전세무서앞(141),중구,선화동,36.330723,127.419337,Y
1107,타슈2,산성동 에스오일 오월드주유소 맞은편,중구,사정동,36.301471,127.386095,Y
1108,타슈2,가오동 홈플러스,동구,가오동,36.307057,127.457308,Y
1109,타슈2,석봉동 엑슬루타워 버스정류장,대덕구,석봉동,36.44952,127.420628,Y
1110,타슈2,신성동 수천이들근린공원,유성구,신성동,36.393719,127.352894,Y
1111,타슈2,계룡육교 아래,중구,태평동,36.332964,127.399369,Y
1112,타슈2,부사동 동서가구 부사전시장,중구,부사동,36.313817,127.436338,Y
1113,타슈2,문창동 해피마트,중구,문창동,36.313739,127.436777,Y
1114,타슈2,산성초등학교 건너편,중구,사정동,36.298122,127.384729,Y
1115,타슈2,"옥계동 현대셀프명성주유소, 옥계모터스",중구,옥계동,36.301854,127.452155,Y
1116,타슈2,한밭대 유성덕명캠퍼스지역협력관,유성구,복용동,36.346365,127.311115,Y
1117,타슈2,관저동 대자연마을 101동,서구,관저동,36.304785,127.338944,Y
1118,타슈2,대전고2,중구,대흥동,36.32265,127.423571,Y
1119,타슈2,대전IC 스타벅스 인근,대덕구,비래동,36.354764,127.444435,Y
1120,타슈2,학하리슈빌포레 주출입구 건너편,유성구,학하동,36.335198,127.309193,Y
1121,타슈2,동방여중 건너편,서구,복수동,36.307405,127.375332,N
1122,타슈2,낭월동 오투그란데 107동 건너편,동구,낭월동,36.285324,127.465609,Y
1123,타슈2,진잠타운 203동 버스정류장,유성구,원내동,36.296965,127.320367,Y
1124,타슈2,남대전등기소 건너편,중구,문창동,36.311635,127.438205,Y
1125,타슈2,엑스포과학공원주차장(26),유성구,가정동,36.377288,127.37881,Y
1126,타슈2,우남스타원아파트 버스정류장,중구,사정동,36.293806,127.383163,Y
1127,타슈2,괴정네거리(봉주르돈까스),서구,내동,36.335078,127.379831,Y
1128,타슈2,도안동 갑천3블럭 트리풀시티 313동,서구,도안동,36.321125,127.348283,Y
1129,타슈2,대성동 평양숨두부 건너편,동구,대성동,36.301302,127.457148,Y
1130,타슈2,동부여성가족원(209),대덕구,법동,36.374272,127.428192,Y
1131,타슈2,낭월동 오투그란데 101동,동구,낭월동,36.287379,127.46371,Y
1132,타슈2,도안 트리플시티 302동,서구,도안동,36.325516,127.348659,Y
1133,타슈2,낭월동 오투그란테 후문,동구,낭월동,36.284019,127.4643,Y
1134,타슈2,도안동 호수초등힉교,서구,도안동,36.319936,127.349437,N
1135,타슈2,도안동 갑천3블럭 트리풀시티 304동,서구,도안동,36.324041,127.348294,Y
1136,타슈2,월드컵 인라인경기장,유성구,노은동,36.368221,127.323652,Y
1137,타슈2,도안동 갑천3블럭 트리풀시티 308동,서구,도안동,36.322402,127.348245,Y
1138,타슈2,도안동 갑천3블럭 트리풀시티 302동,서구,도안동,36.325177,127.348356,Y
1139,타슈2,동양파라곤 302동,중구,태평동,36.320991,127.387122,Y
1140,타슈2,노은농수산물시장,유성구,노은동,36.36658,127.321225,Y
1141,타슈2,대전시립박물관2,유성구,상대동,36.336726,127.334744,Y
1142,타슈2,유성생명과학고(64),유성구,상대동,36.348285,127.330635,Y
1143,타슈2,갈마중학교(서부장로교회)(221),서구,갈마동,36.349416,127.368387,Y
1144,타슈2,사이언스페스티벌 행사장,유성구,도룡동,36.375125,127.389321,N
1145,타슈2,연구단지네거리,유성구,도룡동,36.385517,127.377058,Y
1146,타슈2,용운동 족발시대 인근,동구,용운동,36.328075,127.457006,Y
1147,타슈2,석봉동 평안정형외과 건너편,대덕구,석봉동,36.444868,127.42456,Y
1148,타슈2,성남동 석촌마을 105동,동구,성남동,36.341464,127.43768,Y
1149,타슈2,성남동 스마트뷰 112동,동구,성남동,36.342341,127.43451,Y
1150,타슈2,내동 롯데아파트,서구,내동,36.338031,127.366756,Y
1151,타슈2,서구청,서구,둔산동,36.35485,127.38443,Y
1152,타슈2,롯데하이마트 유천점,중구,유천동,36.316631,127.391263,N
1153,타슈2,낭월동 산내로1315번길,동구,낭월동,36.281446,127.464573,Y
1154,타슈2,동일스위트1단지 101동,대덕구,신탄진동,36.452466,127.433092,Y
1155,타슈2,쌍용예가(87),중구,태평동,36.322685,127.398107,Y
1156,타슈2,성남동 효촌마을 건너편,동구,성남동,36.345552,127.432902,Y
1157,타슈2,둔곡 서한이다음 후문(202동),유성구,둔곡동,36.452555,127.363293,Y
1158,타슈2,둔곡 서한이다음 정문(103동),유성구,둔곡동,36.455346,127.363914,Y
1159,타슈2,둔곡 우미린 정문(101동),유성구,둔곡동,36.454854,127.36408,Y
1160,타슈2,둔곡 우미린 정문(107동),유성구,둔곡동,36.454367,127.363993,Y
1161,타슈2,둔곡 서한이다음 정문(101동),유성구,둔곡동,36.454314,127.363703,Y
1162,타슈2,오정동 374-2,대덕구,오정동,36.352752,127.414263,Y
1163,타슈2,가오주공아파트(105동),동구,가오동,36.306631,127.453356,Y
1164,타슈2,가오주공아파트2(105동),동구,가오동,36.306664,127.453367,N
1165,타슈2,죽동 한국타이어앞 CU,유성구,죽동,36.376312,127.338052,Y
1166,타슈2,흑석네거리(기성보건지소),서구,흑석동,36.254704,127.341442,Y
1167,타슈2,가양동 드림팰리스5차,동구,가양동,36.350111,127.441486,Y
1168,타슈2,관저동 금동초등학교,서구,관저동,36.29716,127.326155,Y
1169,타슈2,충남대학교 간호대학,중구,문화동,36.315591,127.413314,Y
1170,타슈2,목동 현대아파트 입구,중구,목동,36.328151,127.41387,Y
1171,타슈2,국제라이온스협회356-B(대전),동구,가양동,36.34528,127.445126,Y
1172,타슈2,다모아 아파트 상가 앞,서구,월평동,36.362582,127.367974,Y
1173,타슈2,가수원은아아파트5단지앞,서구,가수원동,36.298957,127.35609,Y
1174,타슈2,가수원역,서구,가수원동,36.298292,127.356237,N
1175,타슈2,금강로하스대청공원,대덕구,미호동,36.472613,127.47335,Y
1176,타슈2,가양동 올댓 앞,동구,가양동,36.346604,127.4447,Y
1177,타슈2,가양동 트윈스아파트,동구,가양동,36.345427,127.451728,Y
1178,타슈2,가팔어린이공원,동구,가양동,36.344248,127.449159,Y
1179,타슈2,대전고용복지플러스센터 입구,서구,탄방동,36.346615,127.385463,Y
1180,타슈2,버드내101동 버스정류장,중구,태평동,36.316011,127.387376,Y